City_ID,City,Country,Max Temp,Current Description,Lat,Lng,Hotel Name
1,Jamestown,US,78.03,overcast clouds,42.097,-79.2353,Jamestown
4,Bani,DO,85.86,clear sky,18.2833,-70.3333,Baní
5,Cabo San Lucas,MX,87.1,clear sky,22.8909,-109.9124,Cabo San Lucas
7,Lorengau,PG,80.28,overcast clouds,-2.0226,147.2712,Lorengau
11,Gewane,ET,94.3,scattered clouds,10.1664,40.6453,Gewana
13,Ouallam,NE,90.84,overcast clouds,14.3188,2.0866,Ouallam
16,Atuona,PF,77.0,few clouds,-9.8,-139.0333,Atuona
17,Marathon,US,76.24,clear sky,44.9,-89.7668,Krautkramer Brothers
19,Kutum,SD,81.41,overcast clouds,14.2,24.6667,Kutum
21,Ajdabiya,LY,84.22,clear sky,30.7554,20.2263,Ajdabiya
22,Albany,US,86.43,clear sky,42.6001,-73.9662,Voorheesville
25,Galle,LK,79.11,overcast clouds,6.0367,80.217,Galle
29,Vila Franca Do Campo,PT,78.19,broken clouds,37.7167,-25.4333,Vila Franca do Campo
31,Bengkulu,ID,77.22,broken clouds,-3.8004,102.2655,Bengkulu
40,Grand-Santi,GF,85.06,broken clouds,4.25,-54.3833,Grand-Santi
42,Kati,ML,80.01,overcast clouds,12.7441,-8.0726,Kati
44,Butaritari,KI,79.52,light rain,3.0707,172.7902,Ukiangang
47,Wladyslawowo,PL,95.94,clear sky,54.7909,18.4009,Wladyslawowo
48,Georgetown,MY,84.88,few clouds,5.4112,100.3354,George Town
49,Katsuura,JP,77.45,overcast clouds,35.1333,140.3,Katsuura
53,Umm Lajj,SA,87.53,clear sky,25.0213,37.2685,Umluj
56,Mana,GF,82.17,broken clouds,5.6592,-53.7767,Mana
60,Ribeira Grande,PT,75.6,few clouds,38.5167,-28.7,Horta
61,Hirara,JP,85.35,clear sky,24.8,125.2833,Hirara
65,Marsa Matruh,EG,81.99,clear sky,31.3525,27.2453,Marsa Matruh
68,Bandarbeyla,SO,80.02,overcast clouds,9.4942,50.8122,Bandarbeyla
70,Pemangkat,ID,79.99,broken clouds,1.1667,108.9667,Pemangkat
73,Lubango,AO,75.56,clear sky,-14.9172,13.4925,Lubango
75,Hithadhoo,MV,81.82,light rain,-0.6,73.0833,Addu City
79,Meridian,US,75.09,haze,43.6121,-116.3915,Boise
80,Kapaa,US,80.19,light rain,22.0752,-159.319,Kapaʻa
81,Prado,BR,78.37,few clouds,-17.3411,-39.2208,Prado
85,Gilgit,PK,96.71,overcast clouds,35.9221,74.3087,Gilgit
87,Merrill,US,76.1,clear sky,45.1805,-89.6835,Merrill
88,Villablino,ES,94.82,clear sky,42.9393,-6.3194,Villablino
89,Veraval,IN,81.97,overcast clouds,20.9,70.3667,Veraval
92,Hambantota,LK,79.14,scattered clouds,6.1241,81.1185,Hambantota
93,Westport,US,89.33,clear sky,41.1415,-73.3579,Norwalk
94,Bosaso,SO,91.51,broken clouds,11.2842,49.1816,Bosaso
97,Nikolskoye,RU,81.88,clear sky,59.7035,30.7861,Saint Petersburg
99,Aksu,CN,86.79,clear sky,41.1231,80.2644,Aksu Prefecture
101,Sinnamary,GF,82.74,scattered clouds,5.3833,-52.95,Sinnamary
102,Touros,BR,82.87,broken clouds,-5.1989,-35.4608,Touros
103,Praia Da Vitoria,PT,80.85,few clouds,38.7333,-27.0667,Praia da Vitória
105,Biak,ID,75.99,scattered clouds,-0.9131,122.8766,CV. MEGA RENTAL Mobil Luwuk Banggai
106,Muros,ES,75.38,clear sky,42.7762,-9.0603,Muros
108,Port Blair,IN,81.09,heavy intensity rain,11.6667,92.75,Port Blair
109,Denpasar,ID,78.46,scattered clouds,-8.65,115.2167,Denpasar
111,Hobyo,SO,78.73,broken clouds,5.3505,48.5268,Hobyo
112,San Patricio,US,88.84,clear sky,28.017,-97.5169,Sinton
114,Ayorou,NE,95.07,broken clouds,14.7308,0.9174,Ayorou
122,Cayenne,GF,86.04,overcast clouds,4.9333,-52.3333,Cayenne
123,Kavaratti,IN,81.1,overcast clouds,10.5669,72.642,Kavaratti
126,Caravelas,BR,78.33,clear sky,-17.7125,-39.2481,Caravelas
128,Mocuba,MZ,79.65,clear sky,-16.8392,36.9856,Mocuba
134,Cape Coast,GH,77.79,scattered clouds,5.1053,-1.2466,Cape Coast
135,Guaymas,MX,90.77,scattered clouds,27.9333,-110.9,Guaymas
136,Faanui,PF,76.82,light rain,-16.4833,-151.75,Vaitape
137,Hastings,GB,75.79,broken clouds,50.8552,0.5729,Hastings
140,Mundi,IN,80.55,overcast clouds,22.0667,76.5,Mundi
145,Shimoda,JP,79.07,overcast clouds,34.6667,138.95,Shimoda
146,Artyom,AZ,80.74,clear sky,40.4723,50.333,Pirallahi
147,Hasaki,JP,79.29,overcast clouds,35.7333,140.8333,Kamisu
149,Vitina,BA,99.97,clear sky,43.2375,17.4839,Radišići
152,Churu,IN,89.04,overcast clouds,28.3,74.95,Churu
154,Asau,RO,83.32,clear sky,46.4333,26.4,Comănești
159,Uige,AO,75.22,few clouds,-7.6087,15.0613,Uige
161,Ampanihy,MG,79.2,few clouds,-24.7,44.75,Ampanihy
165,Herbertpur,IN,82.9,overcast clouds,30.45,77.7333,Vikasnagar
166,Saint-Andre-Les-Vergers,FR,80.64,broken clouds,48.2853,4.0521,Troyes
167,Ussel,FR,86.74,clear sky,45.55,2.3167,Ussel
171,Elizabethtown,US,82.09,clear sky,37.694,-85.8591,Elizabethtown
172,Padang,ID,78.62,overcast clouds,-0.9492,100.3543,Padang
173,Worland,US,78.15,clear sky,44.0169,-107.9554,Worland
174,Portoferraio,IT,93.72,clear sky,42.8115,10.3146,Portoferraio
175,Naze,JP,81.52,overcast clouds,28.3667,129.4833,Amami
178,Road Town,VG,80.64,thunderstorm with light rain,18.4167,-64.6167,Road Town
181,Vetlanda,SE,93.61,broken clouds,57.4289,15.0776,Vetlanda
183,Nsanje,MW,84.33,clear sky,-16.92,35.262,Nsanje
186,Sibut,CF,81.63,light rain,5.718,19.0739,Sibut
188,Surt,LY,82.94,clear sky,31.2089,16.5887,Sirte
191,Sao Filipe,CV,76.14,broken clouds,14.8961,-24.4956,Sao Filipe
192,Lasa,IT,89.69,broken clouds,46.6166,10.7002,Schlanders
193,Maceio,BR,81.84,broken clouds,-9.6658,-35.7353,Maceió
198,Santa Isabel Do Rio Negro,BR,83.95,scattered clouds,-0.4139,-65.0192,Santa Isabel do Rio Negro
202,Bacolod,PH,80.02,overcast clouds,10.6667,122.95,Bacolod
203,Myra,IT,98.15,clear sky,45.4358,12.1348,Venice
207,Yarada,IN,86.32,mist,17.65,83.2667,Visakhapatnam
209,Ahuimanu,US,75.2,few clouds,21.4447,-157.8378,Honolulu
210,Nago,JP,83.35,scattered clouds,26.5881,127.9761,Nago
211,Sissach,CH,87.91,clear sky,47.4641,7.8089,Liestal
213,Bethel,US,87.89,clear sky,41.3712,-73.414,Danbury
214,Bubaque,GW,78.98,light rain,11.2833,-15.8333,Bubaque
215,Manaure,CO,86.25,few clouds,11.7751,-72.4445,Manaure
216,Imbituba,BR,75.09,clear sky,-28.24,-48.6703,Imbituba
217,Turbat,PK,89.94,overcast clouds,26.0023,63.044,Turbat
218,Nishihara,JP,83.48,clear sky,26.1842,127.7558,Nanjo
220,Santa Cruz,BO,78.85,broken clouds,-17.8,-63.1667,Santa Cruz de la Sierra
222,Manaus,BR,86.5,scattered clouds,-3.1019,-60.025,Manaus
226,Kaduna,NG,80.87,light rain,10.5222,7.4383,Kaduna
227,Harper,LR,78.08,broken clouds,4.375,-7.7169,Harper
228,Marzuq,YE,86.47,clear sky,14.4,46.4667,Al Hujayrah
229,Wiwili,NI,76.17,overcast clouds,13.6268,-85.8254,Wiwilí de Nueva Segovia
230,Piacabucu,BR,79.54,overcast clouds,-10.4056,-36.4344,Piaçabuçu
232,Nicoya,CR,76.53,overcast clouds,10.1483,-85.452,Nicoya
235,Bereda,ES,77.0,few clouds,43.2686,-7.5406,A Feira do Monte
238,Mumford,GH,76.86,scattered clouds,5.2618,-0.759,Mumford
241,Suluq,LY,87.91,clear sky,31.6682,20.2521,Suluq
243,Puerto Ayacucho,VE,77.0,overcast clouds,5.6639,-67.6236,Puerto Ayacucho
245,Dingle,PH,78.4,overcast clouds,10.9995,122.6711,Pototan
247,Ouadda,CF,78.73,moderate rain,8.0777,22.4007,Ouadda
248,Dwarka,IN,83.35,overcast clouds,22.2394,68.9678,Dwarka
250,Victoria,HK,89.19,clear sky,22.2855,114.1577,Hong Kong
253,Manokwari,ID,79.61,broken clouds,-0.8667,134.0833,Manokwari
257,Nouadhibou,MR,78.78,few clouds,20.931,-17.0347,Nouadhibou
259,Sarkand,KZ,82.98,clear sky,45.41,79.9186,Sarķand
260,Orthez,FR,91.9,clear sky,43.4884,-0.7724,Orthez
261,Almeirim,BR,85.17,broken clouds,-1.5233,-52.5817,Almeirim
262,Broome,US,85.55,clear sky,42.2506,-75.833,Chenango Forks
264,Aleppo,SY,94.75,clear sky,36.25,37.5,Nadżdżara
265,Sao Jose Da Coroa Grande,BR,78.1,broken clouds,-8.8978,-35.1478,São José da Coroa Grande
267,Malanje,AO,84.61,scattered clouds,-9.5402,16.341,Malanje
268,Dakar,SN,88.68,scattered clouds,14.6937,-17.4441,Dakar
271,Vanimo,PG,79.18,heavy intensity rain,-2.6741,141.3028,Vanimo
275,Kaoma,ZM,78.49,overcast clouds,-14.7833,24.8,Kaoma
278,Saint George,US,89.26,clear sky,37.1041,-113.5841,St. George
280,Issoudun,FR,79.45,scattered clouds,47.0,1.8333,Vatan
281,Wattegama,LK,79.43,light rain,6.7989,81.4808,Wattegama
283,Kroya,ID,77.52,overcast clouds,-7.6331,109.2461,Kebasen
285,Daru,PG,76.59,broken clouds,-9.0763,143.2092,Daru
286,Umm Kaddadah,SD,75.76,overcast clouds,13.6017,26.6876,Umm Kadadda
288,Bardiyah,LY,82.92,clear sky,31.7561,25.0865,Bardiyah
289,Katra,IN,75.24,light rain,32.9833,74.95,Katra
290,Gat,IL,89.4,clear sky,31.61,34.7642,Kiryat Gat
291,Jaisalmer,IN,93.38,broken clouds,26.9147,70.9181,Jaisalmer
294,Nieves,PH,81.91,light rain,15.3274,120.9485,Gapan City
297,Malkangiri,IN,77.59,overcast clouds,18.35,81.9,Malkangiri
301,Middlebury,US,82.58,overcast clouds,44.0153,-73.1673,Middlebury
303,Alingsas,SE,89.31,overcast clouds,57.9303,12.5335,Alingsås
304,Matamoros,MX,82.51,few clouds,25.5333,-103.25,Matamoros
307,Aquiraz,BR,86.45,broken clouds,-3.9014,-38.3911,Eusébio
308,Xinxiang,CN,79.39,clear sky,35.3089,113.8672,Xinxiang
309,Aden,YE,86.13,clear sky,12.7794,45.0367,Aden
312,Mecca,SA,98.49,clear sky,21.4267,39.8261,Mecca
313,Pontianak,ID,80.58,overcast clouds,-0.0333,109.3333,Pontianak
319,Port Moresby,PG,78.22,scattered clouds,-9.4431,147.1797,Port Moresby
320,Sulangan,PH,85.71,overcast clouds,11.1373,123.7228,Bantayan
323,Kemijarvi,FI,76.35,overcast clouds,66.7131,27.4306,Kemijärvi
324,Marabba,SD,82.98,overcast clouds,12.35,32.1833,Marabba
325,Gopalpur,IN,84.87,overcast clouds,19.2667,84.9167,Gopalpur
326,Peniche,PT,76.28,broken clouds,39.3558,-9.3811,"Peniche, Portugal"
327,Opuwo,,78.13,clear sky,-18.0607,13.84,Opuwo
331,Bambanglipuro,ID,76.15,scattered clouds,-7.95,110.2833,Bantul
332,Mineros,BO,80.26,broken clouds,-17.1167,-63.2333,Minero
333,Yabrud,SY,85.75,clear sky,33.9674,36.6574,Yabrud
335,Kontagora,NG,83.55,light rain,10.3999,5.4695,Kontagora
338,Sant Julia De Loria,AD,91.89,few clouds,42.4625,1.4825,Andorra la Vella
340,Ugoofaaru,MV,82.27,overcast clouds,5.6667,73.0,Ungoofaaru
342,Drahovo,UA,84.7,clear sky,48.2357,23.5491,Drahovo
343,Sepuka,TZ,77.29,overcast clouds,-4.75,34.5333,Sepuka
344,Bartica,GY,84.52,few clouds,6.4,-58.6167,Bartica
347,Barao De Melgaco,BR,91.24,clear sky,-16.1944,-55.9675,Barão de Melgaço
349,Bathsheba,BB,86.61,scattered clouds,13.2167,-59.5167,Wilson Hill
350,Jalu,LY,94.1,clear sky,29.0331,21.5482,Jalu
352,Abu Samrah,SY,92.7,clear sky,35.3029,37.1841,Suruj
357,Chingirlau,KZ,84.18,broken clouds,51.095,54.0814,Shyngyrlau
358,Buchanan,LR,79.03,overcast clouds,5.8808,-10.0467,Buchanan
360,The Valley,AI,86.09,scattered clouds,18.217,-63.0578,The Valley
362,Ponta Do Sol,PT,82.71,clear sky,32.6667,-17.1,Ribeira Brava
363,Avera,US,83.71,overcast clouds,33.194,-82.5271,Avera
364,Belmonte,BR,75.97,few clouds,-15.8631,-38.8828,Belmonte
366,Eyl,SO,84.72,overcast clouds,7.9803,49.8164,Eyl
368,Tivaouane,SN,88.14,overcast clouds,14.9515,-16.8129,Tivaouane
371,Mandera,KE,91.27,scattered clouds,3.9366,41.867,Mandera
372,Guaraciaba Do Norte,BR,78.98,scattered clouds,-4.1669,-40.7475,Guaraciaba do Norte
375,Morondava,MG,77.18,clear sky,-20.2833,44.2833,Morondava
376,Mizdah,LY,94.84,clear sky,31.4451,12.9801,Mizdah
377,Mexico,PH,82.11,light rain,15.0646,120.7198,San Fernando
378,Bolobo,CD,88.79,broken clouds,-2.1667,16.2333,Bolobo
387,Komsomolskiy,UZ,99.32,clear sky,40.4272,71.7189,Fergana
388,Masty,BY,80.29,few clouds,53.4122,24.5387,Masty
391,Santa Rosa,PH,80.58,overcast clouds,14.3122,121.1114,Santa Rosa
393,Tari,NG,91.65,overcast clouds,12.4086,4.4914,Kashin Zama
396,Mahibadhoo,MV,83.43,overcast clouds,3.7833,72.9667,Omadhoo
397,Phangnga,TH,80.64,moderate rain,8.4509,98.5298,Thai Chang
399,Alugan,PH,81.79,few clouds,12.2188,125.4808,San Policarpo
401,Paracuru,BR,83.1,broken clouds,-3.41,-39.0306,Paracuru
405,Puerto Escondido,MX,79.63,scattered clouds,15.85,-97.0667,Puerto Escondido
406,Zarichne,UA,79.38,few clouds,51.8126,26.129,Zarichne
408,Gizo,SB,81.79,few clouds,-8.103,156.8419,Gizo
409,Homnabad,IN,78.37,overcast clouds,17.7667,77.1333,Humnabad
410,Dong Hoi,VN,79.03,broken clouds,17.4833,106.6,Đồng Hới
411,Bonthe,SL,77.61,light rain,7.5264,-12.505,Bonthe
412,Trapani,IT,92.28,few clouds,37.8333,12.6667,Ricalcata
413,Uruacu,BR,84.45,few clouds,-14.5247,-49.1408,Vila Santana
414,Matara,LK,78.84,overcast clouds,5.9485,80.5353,Matara
420,Alexandria,EG,81.03,clear sky,31.2156,29.9553,Alexandria
421,Rio Grande,BR,78.91,moderate rain,-32.035,-52.0986,Rio Grande
423,Bonfim,BR,81.99,broken clouds,3.0833,-59.95,Bonfim
425,Visby,SE,91.62,clear sky,57.6409,18.296,Visby
427,Bay City,US,80.71,clear sky,43.5945,-83.8889,Bay City
436,Seguela,CI,82.81,overcast clouds,7.9611,-6.6731,Seguela
437,Huicungo,PE,75.45,scattered clouds,-7.2833,-76.8,Huicungo
440,Chiang Klang,TH,75.51,heavy intensity rain,19.2938,100.8617,Chiang Klang
444,Bosobolo,CD,84.27,light rain,4.1833,19.9,Bosobolo
445,Trinidad,BO,82.38,clear sky,-14.8333,-64.9,Trinidad
446,Peringat,MY,80.55,few clouds,6.0333,102.2833,Kota Bharu
448,Palestine,PS,80.94,clear sky,31.9216,35.2033,Jerusalem
449,Patuli,IN,87.58,light rain,23.55,88.25,Agradwip
451,Xuddur,SO,86.02,scattered clouds,4.1213,43.8894,Xuddur
452,Xuanhua,CN,78.24,broken clouds,40.6103,115.0447,Zhangjiakou
454,Hoi An,VN,78.76,broken clouds,15.8794,108.335,Hội An
456,Kashi,CN,88.81,dust,39.4547,75.9797,Kashgar Prefecture
457,Jardim,BR,85.14,clear sky,-21.4803,-56.1381,Jardim
459,Kidal,ML,99.25,scattered clouds,18.4411,1.4078,Kidal
460,Koungou,YT,78.51,broken clouds,-12.7336,45.2042,Mamoudzou
461,Port-Gentil,GA,82.36,scattered clouds,-0.7193,8.7815,Port-Gentil
464,Islahiye,TR,91.92,clear sky,37.025,36.6306,İslahiye
467,Bud,US,81.75,clear sky,39.447,-86.1758,Trafalgar
469,Seybaplaya,MX,80.06,clear sky,19.65,-90.6667,Seybaplaya
471,Araouane,ML,99.32,scattered clouds,18.9048,-3.5265,Araouane
473,Acapulco,MX,84.02,scattered clouds,16.8634,-99.8901,Acapulco
474,Epanomi,GR,97.86,few clouds,40.4264,22.9286,Epanomi
475,Salalah,OM,78.89,overcast clouds,17.0151,54.0924,Salalah
479,Pachperwa,IN,82.85,overcast clouds,27.5167,82.65,Pachperwa
480,Eirunepe,BR,82.9,broken clouds,-6.6603,-69.8736,Eirunepé
486,Urumqi,CN,81.55,clear sky,43.801,87.6005,Ürümqi
490,Luwuk,ID,76.73,scattered clouds,-0.9516,122.7875,Luwuk
492,Yicheng,CN,81.36,broken clouds,31.3705,119.8703,Wuxi
494,Mayo,US,90.36,clear sky,38.8876,-76.5119,Mayo
495,Morgantown,US,79.05,overcast clouds,39.6295,-79.9559,Morgantown
496,Conceicao Da Barra,BR,79.2,few clouds,-18.5933,-39.7322,Santana
497,Vaitape,PF,76.8,light rain,-16.5167,-151.75,Vaitape
499,Saedinenie,BG,96.78,clear sky,42.2667,24.55,Saedinenie
500,Walla Walla,US,75.34,clear sky,46.0646,-118.343,Walla Walla
502,Rena,NO,82.11,overcast clouds,61.1348,11.3641,Rena
505,Yaan,NG,78.15,light rain,7.3833,8.5667,Iorjan
508,Russell,US,83.97,overcast clouds,32.3502,-85.1999,Russell County High School
511,Semporna,MY,81.39,overcast clouds,4.4818,118.6112,Semporna
512,Nisia Floresta,BR,84.58,overcast clouds,-6.0911,-35.2086,São José de Mipibu
513,Codogno,IT,99.63,clear sky,45.1619,9.7022,Codogno
514,Matadi,CD,92.55,few clouds,-5.8167,13.45,Matadi
515,Inirida,CO,78.76,scattered clouds,3.8653,-67.9239,Inírida
516,Teknaf,BD,82.65,overcast clouds,20.8624,92.3058,Teknaf
520,Santa Maria,BR,78.1,clear sky,-29.6842,-53.8069,Santa Maria
521,Bereznik,RU,79.29,overcast clouds,62.8551,42.7072,Bereznik
523,Saint Anthony,US,77.14,scattered clouds,45.0205,-93.218,Minneapolis
524,Las Choapas,MX,81.03,scattered clouds,17.9333,-94.0833,Las Choapas
525,Bedong,MY,84.9,overcast clouds,5.7274,100.5088,Sungai Petani
526,Kisangani,CD,86.63,overcast clouds,0.5167,25.2,Kisangani
528,Turan,VN,78.78,scattered clouds,16.0678,108.2208,Da Nang
530,Korla,CN,83.62,clear sky,41.7597,86.1469,Bayingolin Mongol Autonomous Prefecture
531,Fare,PF,76.23,light rain,-16.7,-151.0167,Fare
536,Brigantine,US,91.02,clear sky,39.4101,-74.3646,Atlantic City
537,Kloulklubed,PW,75.7,light rain,7.0419,134.2556,Klouklubed
538,Pangoa,PE,78.1,broken clouds,-12.1167,-73.0,Colegio De Pangoa
539,Ambilobe,MG,77.85,few clouds,-13.2,49.05,Ambilobe
540,Yingcheng,CN,81.82,broken clouds,30.95,113.55,Xiaogan
541,Anyksciai,LT,77.95,few clouds,55.5256,25.1026,Anykščiai
542,Carnot,CF,78.48,light rain,4.9409,15.8665,Carnot
544,Tautira,PF,75.16,light rain,-17.7333,-149.15,Tautira
545,Cockburn Town,TC,82.27,clear sky,21.4612,-71.1419,Cockburn Town
552,Bairiki,KI,80.6,light rain,1.3292,172.9752,Bairiki
553,Vilhena,BR,84.42,clear sky,-12.7406,-60.1458,Vilhena
555,Jonkoping,SE,96.51,clear sky,57.7814,14.1562,Jönköping
563,Owase,JP,78.51,overcast clouds,34.0667,136.2,Owase
564,San Policarpo,PH,82.38,few clouds,12.1791,125.5072,Oras
566,Roswell,US,76.78,thunderstorm with heavy rain,34.0232,-84.3616,Roswell
568,Kakegawa,JP,79.02,overcast clouds,34.7667,138.0167,Kakegawa
570,Zorgo,BF,89.2,overcast clouds,12.2489,-0.6158,Zorgo
571,Dera Bugti,PK,93.94,overcast clouds,29.0307,69.151,Dera Bugti
574,Ponta Delgada,PT,78.49,broken clouds,37.7333,-25.6667,Ponta Delgada
576,Kaspiysk,RU,78.98,few clouds,42.8816,47.6392,Kaspiysk
578,Sao Gabriel Da Cachoeira,BR,80.4,broken clouds,-0.1303,-67.0892,São Gabriel da Cachoeira
580,Dongsheng,CN,79.57,overcast clouds,39.8161,109.9776,Ordos City
587,Vazante,BR,76.6,clear sky,-17.9869,-46.9078,Vazante
588,Kui Buri,TH,75.88,light rain,12.0828,99.8543,Kui Buri
590,Palasa,IN,83.89,overcast clouds,18.7667,84.4167,Shivaji Nagar
592,Ranong,TH,76.87,moderate rain,9.9658,98.6348,Bang Rin
595,Galveston,US,89.98,scattered clouds,29.3669,-94.9669,Texas City
596,Poum,NC,76.44,clear sky,-20.2333,164.0167,Poum
597,Akersberga,SE,91.47,few clouds,59.4794,18.2997,Åkersberga
598,Keti Bandar,PK,84.67,few clouds,24.1447,67.4497,Keti Bandar
600,Aneho,TG,82.6,scattered clouds,6.2333,1.6,Grand Popo
601,Sur,OM,89.89,overcast clouds,22.5667,59.5289,Sur
605,Griffith,US,82.89,clear sky,41.5284,-87.4237,Gary
606,Ouegoa,NC,75.18,clear sky,-20.35,164.4333,Ouegoa
614,Joutseno,FI,80.65,clear sky,61.118,28.5076,Lappeenranta
618,Guarapari,BR,76.89,few clouds,-20.6667,-40.4975,Guarapari
621,Feijo,BR,82.15,clear sky,-8.1642,-70.3536,Feijó
622,Nouakchott,MR,82.33,broken clouds,18.0858,-15.9785,Nouakchott
627,Mitsamiouli,KM,80.89,scattered clouds,-11.3847,43.2844,Mitsamiouli
629,Lola,GN,78.1,overcast clouds,7.8,-8.5333,Lola
630,Kalaswala,PK,79.03,overcast clouds,32.2009,74.6491,Kalaswala
633,Lago Da Pedra,BR,84.69,few clouds,-4.3333,-45.1667,São José dos Curicas
636,Najran,SA,97.45,broken clouds,17.4924,44.1277,Najran
637,Hami,CN,81.12,clear sky,42.8,93.45,Hami
638,Grafton,US,88.61,clear sky,42.207,-71.6856,Millbury
640,Isangel,VU,75.2,few clouds,-19.55,169.2667,Isangel
642,Bantogon,PH,78.98,moderate rain,6.5333,124.0333,Kalamansig
643,Rovinj,HR,93.69,clear sky,45.08,13.64,Rovinj
645,La Macarena,CO,77.22,overcast clouds,2.1837,-73.7849,La Macarena
647,Rodez,FR,89.28,clear sky,44.5,2.5833,Salles-la-Source
648,Lata,PT,85.5,clear sky,40.1629,-8.3327,Coimbra
656,Suba,PH,84.56,overcast clouds,10.8438,121.0102,Cuyo
658,Ambikapur,IN,79.74,light rain,23.1167,83.2,Ambikapur
660,Wilmington,US,88.9,clear sky,34.2257,-77.9447,Wilmington
663,Kadiri,IN,85.57,overcast clouds,14.1167,78.1667,Kadiri
664,Mae Ramat,TH,81.07,overcast clouds,16.984,98.5166,Mae Ramat
667,Kalmunai,LK,83.25,heavy intensity rain,7.4167,81.8167,Kalmunai
670,Tabou,CI,78.44,broken clouds,4.423,-7.3528,Tabou
671,Nam Som,TH,79.03,overcast clouds,17.7704,102.1895,Si Samran
672,Odweyne,SO,81.25,overcast clouds,9.4092,45.064,Oodweyne
673,Markapur,IN,89.44,heavy intensity rain,15.7333,79.2833,Markapur
674,Ligayan,PH,84.09,overcast clouds,4.6533,119.4706,Sibutu
677,Kompaniyivka,UA,79.47,broken clouds,48.2511,32.208,Kompaniivka
678,Hamilton,US,82.78,clear sky,39.1834,-84.5333,Cincinnati
679,Oxford,GB,75.22,broken clouds,51.7522,-1.256,Oxford
680,Tumarbong,PH,81.12,overcast clouds,10.3766,119.4579,Roxas
682,Solhan,TR,86.95,clear sky,38.9634,41.0293,Solhan
683,Quang Ngai,VN,78.73,broken clouds,15.1167,108.8,Quảng Ngãi
685,Samarai,PG,80.22,clear sky,-10.6167,150.6667,Magesina
687,Santander Jimenez,MX,82.42,clear sky,24.2167,-98.4667,Jiménez
692,Amberley,US,82.09,clear sky,39.2048,-84.428,Cincinnati
694,Great Bend,US,84.04,clear sky,38.3645,-98.7648,Great Bend
695,Iracoubo,GF,82.45,scattered clouds,5.4802,-53.2011,Iracoubo
698,Tura,IN,76.37,overcast clouds,25.5198,90.2201,Tura
701,Akyab,MM,83.48,overcast clouds,20.15,92.9,Sittwe
703,Lahij,YE,91.31,scattered clouds,13.1667,44.5833,
