City_ID,City,Country,Lat,Lng,Max Temp,Humidity,Cloudiness,Wind Speed,Current Description,Date
0,Rikitea,PF,-23.1203,-134.9692,74.35,78,100,17.54,overcast clouds,2022-07-17 17:55:42
1,Esperance,AU,-33.8667,121.9,53.26,86,100,10.09,light rain,2022-07-17 17:55:42
2,Iqaluit,CA,63.7506,-68.5145,46.13,87,100,9.22,light rain,2022-07-17 17:55:43
3,Sembe,CG,1.6481,14.5806,72.21,92,100,1.79,light rain,2022-07-17 17:55:43
4,Ushuaia,AR,-54.8,-68.3,42.46,52,40,5.75,scattered clouds,2022-07-17 17:55:43
5,Praia Da Vitoria,PT,38.7333,-27.0667,79.05,69,75,12.55,broken clouds,2022-07-17 17:55:44
6,Mahebourg,MU,-20.4081,57.7,70.09,64,40,19.57,scattered clouds,2022-07-17 17:55:44
7,Souillac,MU,-20.5167,57.5167,70.18,64,40,19.57,scattered clouds,2022-07-17 17:55:45
8,Luderitz,NA,-26.6481,15.1594,67.75,41,9,5.26,clear sky,2022-07-17 17:55:45
9,Bambous Virieux,MU,-20.3428,57.7575,70.05,64,40,19.57,scattered clouds,2022-07-17 17:53:09
10,Pevek,RU,69.7008,170.3133,31.03,94,100,35.19,light snow,2022-07-17 17:51:47
11,Portland,US,45.5234,-122.6762,72.5,55,14,5.99,few clouds,2022-07-17 17:55:45
12,Barrow,US,71.2906,-156.7887,39.92,74,100,14.58,overcast clouds,2022-07-17 17:55:46
13,Codrington,AU,-38.2667,141.9667,48.58,67,96,18.19,overcast clouds,2022-07-17 17:55:46
14,Kendari,ID,-3.945,122.4989,74.14,95,100,2.77,light rain,2022-07-17 17:55:46
15,Castro,BR,-24.7911,-50.0119,67.53,68,100,2.04,overcast clouds,2022-07-17 17:55:47
16,Ust-Kut,RU,56.7938,105.7672,52.61,95,69,0.67,broken clouds,2022-07-17 17:55:47
17,Dikson,RU,73.5069,80.5464,45.1,79,65,8.77,broken clouds,2022-07-17 17:55:48
18,Florianopolis,BR,-27.6146,-48.5012,68.13,68,20,12.66,few clouds,2022-07-17 17:55:48
19,Kavieng,PG,-2.5744,150.7967,81.86,80,71,14.7,light rain,2022-07-17 17:55:48
20,Hobart,AU,-42.8794,147.3294,39.06,84,75,17.27,broken clouds,2022-07-17 17:55:49
21,Kapaa,US,22.0752,-159.319,77.47,84,100,5.01,overcast clouds,2022-07-17 17:55:49
22,Ancud,CL,-41.8697,-73.8203,43.23,85,71,17.09,moderate rain,2022-07-17 17:55:49
23,Oranjemund,NA,-28.55,16.4333,60.31,67,6,0.6,clear sky,2022-07-17 17:55:50
24,Los Llanos De Aridane,ES,28.6585,-17.9182,72.12,82,0,16.11,clear sky,2022-07-17 17:55:50
25,Hilo,US,19.7297,-155.09,87.28,89,100,5.75,overcast clouds,2022-07-17 17:53:58
26,Garden City,US,42.3256,-83.331,81.48,74,100,5.75,overcast clouds,2022-07-17 17:55:05
27,Cabo San Lucas,MX,22.8909,-109.9124,92.61,59,11,6.02,few clouds,2022-07-17 17:52:16
28,Busselton,AU,-33.65,115.3333,53.15,93,100,13.13,overcast clouds,2022-07-17 17:53:23
29,Zyryanka,RU,65.75,150.85,50.25,70,42,0.78,scattered clouds,2022-07-17 17:55:51
30,Port Alfred,ZA,-33.5906,26.891,73.58,33,2,13.98,clear sky,2022-07-17 17:55:51
31,Kahului,US,20.8947,-156.47,80.83,77,71,13.0,broken clouds,2022-07-17 17:55:51
32,Tuktoyaktuk,CA,69.4541,-133.0374,55.4,88,75,4.61,broken clouds,2022-07-17 17:55:52
33,Vaini,TO,-21.2,-175.2,73.56,83,20,6.91,few clouds,2022-07-17 17:55:52
34,Farmington,US,36.7281,-108.2187,94.77,22,3,5.01,clear sky,2022-07-17 17:55:52
35,Albany,US,42.6001,-73.9662,90.63,45,37,3.0,scattered clouds,2022-07-17 17:55:53
36,Surt,LY,31.2089,16.5887,80.26,63,0,12.97,clear sky,2022-07-17 17:55:53
37,Muros,ES,42.7762,-9.0603,85.15,77,74,2.35,broken clouds,2022-07-17 17:55:53
38,Arraial Do Cabo,BR,-22.9661,-42.0278,87.76,54,0,10.36,clear sky,2022-07-17 17:55:54
39,Sao Jose Da Coroa Grande,BR,-8.8978,-35.1478,77.38,75,25,13.42,scattered clouds,2022-07-17 17:55:54
40,Jamestown,US,42.097,-79.2353,78.06,70,100,6.91,overcast clouds,2022-07-17 17:55:55
41,Cedar City,US,37.6775,-113.0619,86.4,25,38,7.23,scattered clouds,2022-07-17 17:55:55
42,Yellowknife,CA,62.456,-114.3525,63.12,82,75,23.02,broken clouds,2022-07-17 17:53:46
43,Coquimbo,CL,-29.9533,-71.3436,56.93,62,0,11.5,clear sky,2022-07-17 17:55:55
44,Saskylakh,RU,71.9167,114.0833,46.87,59,90,5.91,overcast clouds,2022-07-17 17:55:56
45,Sola,VU,-13.8833,167.55,80.96,75,87,23.31,overcast clouds,2022-07-17 17:55:56
46,Sao Joao Da Barra,BR,-21.6403,-41.0511,87.89,71,87,17.76,overcast clouds,2022-07-17 17:55:56
47,Punta Arenas,CL,-53.15,-70.9167,37.51,70,0,11.5,clear sky,2022-07-17 17:55:57
48,Provideniya,RU,64.3833,-173.3,51.15,95,100,6.33,overcast clouds,2022-07-17 17:55:57
49,San Policarpo,PH,12.1791,125.5072,80.44,80,100,5.66,overcast clouds,2022-07-17 17:55:58
50,Clyde River,CA,70.4692,-68.5914,35.83,87,100,13.8,overcast clouds,2022-07-17 17:55:58
51,Atuona,PF,-9.8,-139.0333,77.95,77,21,21.03,few clouds,2022-07-17 17:55:58
52,Victoria,HK,22.2855,114.1577,86.38,81,100,11.01,overcast clouds,2022-07-17 17:55:59
53,Dalbandin,PK,28.8947,64.4101,90.48,41,43,20.74,scattered clouds,2022-07-17 17:55:59
54,Tasiilaq,GL,65.6145,-37.6368,41.86,78,88,6.06,overcast clouds,2022-07-17 17:55:59
55,Nouadhibou,MR,20.931,-17.0347,75.18,73,3,31.07,sand,2022-07-17 17:56:00
56,Guerrero Negro,MX,27.9769,-114.0611,77.9,51,3,9.04,clear sky,2022-07-17 17:56:00
57,Adelanto,US,34.5828,-117.4092,103.08,17,32,2.17,scattered clouds,2022-07-17 17:56:00
58,Upernavik,GL,72.7868,-56.1549,41.18,86,53,15.14,broken clouds,2022-07-17 17:56:01
59,Marawi,PH,7.9986,124.2928,69.35,93,100,3.04,overcast clouds,2022-07-17 17:56:01
60,Grand Gaube,MU,-20.0064,57.6608,70.2,66,41,8.99,scattered clouds,2022-07-17 17:56:01
61,Mataura,NZ,-46.1927,168.8643,51.48,88,86,5.84,overcast clouds,2022-07-17 17:56:02
62,Richards Bay,ZA,-28.783,32.0377,66.79,80,0,11.83,clear sky,2022-07-17 17:56:02
63,Katsuura,JP,35.1333,140.3,76.6,92,37,14.25,scattered clouds,2022-07-17 17:56:02
64,Ramhormoz,IR,31.28,49.6035,104.81,8,0,3.42,clear sky,2022-07-17 17:56:03
65,Butaritari,KI,3.0707,172.7902,81.77,74,99,10.4,overcast clouds,2022-07-17 17:56:03
66,Cherskiy,RU,68.75,161.3,35.42,63,71,13.13,broken clouds,2022-07-17 17:54:54
67,Saldanha,ZA,-33.0117,17.9442,59.05,93,0,7.96,clear sky,2022-07-17 17:56:03
68,Khatanga,RU,71.9667,102.5,57.81,62,100,5.06,overcast clouds,2022-07-17 17:56:04
69,Tiksi,RU,71.6872,128.8694,36.77,78,99,4.21,overcast clouds,2022-07-17 17:56:04
70,Norman Wells,CA,65.282,-126.8329,64.44,77,75,5.75,broken clouds,2022-07-17 17:56:04
71,Nikolskoye,RU,59.7035,30.7861,58.91,94,98,5.99,overcast clouds,2022-07-17 17:52:58
72,Bluff,NZ,-46.6,168.3333,51.8,67,87,20.65,overcast clouds,2022-07-17 17:53:02
73,Kitsuki,JP,33.4167,131.6167,75.18,74,100,1.79,overcast clouds,2022-07-17 17:56:05
74,Preobrazheniye,RU,42.9019,133.9064,62.02,91,100,10.33,overcast clouds,2022-07-17 17:56:05
75,Homer,US,59.6425,-151.5483,55.27,92,100,13.0,overcast clouds,2022-07-17 17:52:21
76,Arman,RU,59.7,150.1667,57.02,95,14,3.04,few clouds,2022-07-17 17:56:06
77,Fortuna,US,40.5982,-124.1573,58.98,76,37,8.68,scattered clouds,2022-07-17 17:52:29
78,Waddan,LY,29.1614,16.139,88.7,19,0,10.09,clear sky,2022-07-17 17:56:06
79,Avarua,CK,-21.2078,-159.775,69.85,88,75,4.61,light rain,2022-07-17 17:56:07
80,Kangaba,ML,11.9333,-8.4167,88.29,53,65,2.95,broken clouds,2022-07-17 17:56:07
81,Zhigansk,RU,66.7697,123.3711,54.5,68,100,12.01,overcast clouds,2022-07-17 17:56:08
82,Longyearbyen,SJ,78.2186,15.6401,48.04,81,75,2.3,broken clouds,2022-07-17 17:56:08
83,Pierre,US,44.3683,-100.351,90.86,52,0,4.0,clear sky,2022-07-17 17:56:08
84,Port-Gentil,GA,-0.7193,8.7815,76.96,78,40,11.5,scattered clouds,2022-07-17 17:56:09
85,Opuwo,NA,-18.0607,13.84,64.8,31,1,8.52,clear sky,2022-07-17 17:56:09
86,Torbay,CA,47.6666,-52.7314,77.76,59,100,10.36,overcast clouds,2022-07-17 17:56:09
87,Ayr,GB,55.4627,-4.6339,73.38,46,0,12.66,clear sky,2022-07-17 17:56:10
88,East London,ZA,-33.0153,27.9116,67.14,52,0,5.75,clear sky,2022-07-17 17:54:53
89,Oum Hadjer,TD,13.2954,19.6966,81.5,63,85,15.32,overcast clouds,2022-07-17 17:56:10
90,Kaitangata,NZ,-46.2817,169.8464,42.12,90,90,3.15,overcast clouds,2022-07-17 17:56:11
91,Bima,ID,-8.4667,118.7167,71.06,92,29,3.67,scattered clouds,2022-07-17 17:56:11
92,Qaanaaq,GL,77.484,-69.3632,46.33,58,67,0.72,broken clouds,2022-07-17 17:56:11
93,Ponta Do Sol,PT,32.6667,-17.1,77.13,73,35,9.13,scattered clouds,2022-07-17 17:56:12
94,Kota Belud,MY,6.351,116.4305,77.85,74,100,3.69,overcast clouds,2022-07-17 17:56:12
95,Izhma,RU,65.0083,53.9113,65.52,76,12,5.68,few clouds,2022-07-17 17:56:12
96,Poiana Stampei,RO,47.3167,25.1333,52.56,68,21,4.68,few clouds,2022-07-17 17:56:13
97,Marrakesh,MA,31.6315,-8.0083,102.27,29,40,9.22,scattered clouds,2022-07-17 17:54:48
98,South Sioux City,US,42.4739,-96.4136,84.99,54,0,3.0,clear sky,2022-07-17 17:53:17
99,Vila Velha,BR,-20.3297,-40.2925,85.95,72,20,11.5,few clouds,2022-07-17 17:56:04
100,Mataram,ID,-8.5833,116.1167,76.01,88,57,4.21,broken clouds,2022-07-17 17:56:13
101,Bilma,NE,18.6853,12.9164,94.12,28,73,9.4,broken clouds,2022-07-17 17:56:14
102,Chuy,UY,-33.6971,-53.4616,52.18,62,0,12.55,clear sky,2022-07-17 17:56:14
103,Zaozerne,UA,45.1582,33.2787,76.59,55,0,19.44,clear sky,2022-07-17 17:56:15
104,Jijiga,ET,9.35,42.8,66.38,65,64,13.94,broken clouds,2022-07-17 17:56:15
105,Bom Jesus Da Lapa,BR,-13.255,-43.4181,90.88,15,0,6.78,clear sky,2022-07-17 17:56:15
106,Dandong,CN,40.1292,124.3947,66.81,96,28,2.15,scattered clouds,2022-07-17 17:56:16
107,Touros,BR,-5.1989,-35.4608,80.44,75,67,17.25,broken clouds,2022-07-17 17:56:16
108,Bekhtery,UA,46.251,32.2927,74.01,41,13,15.84,few clouds,2022-07-17 17:56:16
109,Laguna,US,38.421,-121.4238,98.94,43,0,4.0,clear sky,2022-07-17 17:56:17
110,San Patricio,US,28.017,-97.5169,96.08,36,82,12.01,broken clouds,2022-07-17 17:56:14
111,New Norfolk,AU,-42.7826,147.0587,38.7,75,92,3.0,overcast clouds,2022-07-17 17:56:17
112,Panaba,MX,21.2833,-88.2667,96.44,36,14,3.22,few clouds,2022-07-17 17:56:18
113,Yar-Sale,RU,66.8333,70.8333,58.46,68,78,3.0,broken clouds,2022-07-17 17:56:18
114,Bengkulu,ID,-3.8004,102.2655,76.44,90,73,3.38,broken clouds,2022-07-17 17:56:18
115,Chicama,PE,-7.8447,-79.1469,61.34,57,22,10.42,few clouds,2022-07-17 17:56:19
116,Keita,NE,14.7551,5.7749,87.76,48,69,15.41,light rain,2022-07-17 17:56:19
117,Bereznik,RU,62.8551,42.7072,56.86,90,90,5.01,light rain,2022-07-17 17:56:20
118,Peniche,PT,39.3558,-9.3811,75.29,80,2,8.52,clear sky,2022-07-17 17:56:20
119,Hithadhoo,MV,-0.6,73.0833,76.91,90,100,28.27,overcast clouds,2022-07-17 17:56:20
120,Banjar,ID,-8.19,114.9675,75.34,91,34,2.26,scattered clouds,2022-07-17 17:56:21
121,Cape Town,ZA,-33.9258,18.4232,60.28,87,75,14.97,broken clouds,2022-07-17 17:55:37
122,Georgetown,MY,5.4112,100.3354,84.88,90,20,2.3,few clouds,2022-07-17 17:51:57
123,Abu Dhabi,AE,24.4667,54.3667,96.91,65,95,5.75,overcast clouds,2022-07-17 17:51:53
124,Nanchang,CN,28.6833,115.8833,79.5,85,98,0.72,overcast clouds,2022-07-17 17:55:46
125,Hermanus,ZA,-34.4187,19.2345,60.8,81,0,8.52,clear sky,2022-07-17 17:56:21
126,Alice Springs,AU,-23.7,133.8833,36.95,38,0,0.0,clear sky,2022-07-17 17:56:22
127,Huarmey,PE,-10.0681,-78.1522,67.84,69,13,10.76,few clouds,2022-07-17 17:56:22
128,Biak,ID,-0.9131,122.8766,74.23,87,98,6.58,overcast clouds,2022-07-17 17:56:22
129,Igboho,NG,8.8333,3.75,73.36,91,81,4.7,light rain,2022-07-17 17:56:23
130,Geraldton,AU,-28.7667,114.6,54.01,94,40,8.05,scattered clouds,2022-07-17 17:56:23
131,Talara,PE,-4.5772,-81.2719,72.36,64,0,16.11,clear sky,2022-07-17 17:56:24
132,Oranjestad,AW,12.524,-70.027,87.75,66,40,26.46,scattered clouds,2022-07-17 17:51:46
133,Lakefield,US,43.6775,-95.1717,82.15,65,40,1.99,scattered clouds,2022-07-17 17:52:45
134,High Level,CA,58.5169,-117.136,69.91,73,40,4.61,scattered clouds,2022-07-17 17:56:24
135,Mantua,IT,45.1667,10.7833,90.64,54,2,5.01,clear sky,2022-07-17 17:56:25
136,Sao Filipe,CV,14.8961,-24.4956,76.1,79,31,15.32,scattered clouds,2022-07-17 17:56:24
137,Mehamn,NO,71.0357,27.8492,55.35,76,40,6.91,scattered clouds,2022-07-17 17:56:25
138,Talnakh,RU,69.4865,88.3972,58.21,71,95,3.85,overcast clouds,2022-07-17 17:53:07
139,Phan Thiet,VN,10.9333,108.1,77.9,90,63,7.61,broken clouds,2022-07-17 17:56:25
140,Del Rio,US,29.3627,-100.8968,91.8,33,0,11.5,clear sky,2022-07-17 17:56:26
141,Ponta Delgada,PT,37.7333,-25.6667,70.52,88,75,17.27,broken clouds,2022-07-17 17:56:26
142,Bagdarin,RU,54.4333,113.6,52.52,97,94,2.37,overcast clouds,2022-07-17 17:56:27
143,Arandis,NA,-22.4167,14.9667,68.18,23,3,2.95,clear sky,2022-07-17 17:56:27
144,Salalah,OM,17.0151,54.0924,76.57,93,100,4.29,overcast clouds,2022-07-17 17:56:27
145,Saint-Philippe,RE,-21.3585,55.7679,67.59,78,87,16.51,light rain,2022-07-17 17:53:37
146,Nusaybin,TR,37.0778,41.2178,93.0,14,0,4.81,clear sky,2022-07-17 17:56:28
147,Kallithea,GR,37.95,23.7,89.49,39,0,9.22,clear sky,2022-07-17 17:56:28
148,Narsaq,GL,60.9167,-46.05,51.24,65,9,9.64,clear sky,2022-07-17 17:56:28
149,Neyshabur,IR,36.2133,58.7958,84.6,12,0,11.12,clear sky,2022-07-17 17:56:29
150,Aklavik,CA,68.2191,-135.0107,57.2,100,40,2.3,scattered clouds,2022-07-17 17:51:47
151,Thiruvarur,IN,10.7667,79.65,83.03,69,100,10.63,overcast clouds,2022-07-17 17:56:29
152,Borba,BR,-4.3878,-59.5939,90.63,50,61,3.4,broken clouds,2022-07-17 17:56:30
153,Garowe,SO,8.4054,48.4845,85.71,34,40,26.69,scattered clouds,2022-07-17 17:56:30
154,Kuvshinovo,RU,57.0295,34.1725,55.94,83,62,3.96,light rain,2022-07-17 17:56:30
155,Kimbe,PG,-5.5502,150.1429,74.84,93,96,3.96,overcast clouds,2022-07-17 17:56:31
156,Tuatapere,NZ,-46.1333,167.6833,55.13,61,61,12.08,broken clouds,2022-07-17 17:56:31
157,Hasaki,JP,35.7333,140.8333,75.6,90,54,9.64,broken clouds,2022-07-17 17:54:34
158,Filadelfia,US,39.9523,-75.1638,88.02,63,75,5.75,broken clouds,2022-07-17 17:53:50
159,Bethel,US,41.3712,-73.414,87.19,63,39,1.99,scattered clouds,2022-07-17 17:56:32
160,Bredasdorp,ZA,-34.5322,20.0403,55.6,86,0,6.31,clear sky,2022-07-17 17:56:32
161,Basar,IN,27.9833,94.6667,73.98,99,65,0.72,broken clouds,2022-07-17 17:56:33
162,Saint-Leu,RE,-21.15,55.2833,69.31,73,47,11.34,scattered clouds,2022-07-17 17:56:33
163,Ramotswa,BW,-24.8716,25.8699,56.82,48,0,2.39,clear sky,2022-07-17 17:56:33
164,Alofi,NU,-19.0595,-169.9187,71.49,94,24,5.75,few clouds,2022-07-17 17:54:58
165,Beatrice,US,40.2681,-96.747,81.18,74,75,9.22,broken clouds,2022-07-17 17:56:34
166,Severo-Kurilsk,RU,50.6789,156.125,53.06,97,100,0.98,overcast clouds,2022-07-17 17:56:34
167,Khandyga,RU,62.6667,135.6,67.48,86,5,2.75,clear sky,2022-07-17 17:56:35
168,Lagoa,PT,39.05,-27.9833,70.92,89,52,10.67,broken clouds,2022-07-17 17:56:35
169,Tura,IN,25.5198,90.2201,76.73,92,65,5.57,broken clouds,2022-07-17 17:56:12
170,Puerto Ayora,EC,-0.7393,-90.3518,75.16,85,74,7.0,broken clouds,2022-07-17 17:56:35
171,Chatra,IN,24.2167,84.8667,81.43,73,48,11.59,scattered clouds,2022-07-17 17:56:36
172,Saint George,US,37.1041,-113.5841,101.79,23,38,8.01,scattered clouds,2022-07-17 17:56:34
173,San Andres,CO,12.5847,-81.7006,86.02,74,40,17.27,scattered clouds,2022-07-17 17:56:36
174,Boromo,BF,11.75,-2.9333,80.38,73,95,4.61,overcast clouds,2022-07-17 17:56:27
175,Namatanai,PG,-3.6667,152.4333,78.8,80,36,9.06,scattered clouds,2022-07-17 17:56:37
176,Anzhero-Sudzhensk,RU,56.081,86.0285,52.57,98,82,13.67,moderate rain,2022-07-17 17:56:37
177,The Valley,AI,18.217,-63.0578,89.46,62,20,18.41,few clouds,2022-07-17 17:56:37
178,Kungurtug,RU,50.5994,97.5228,51.69,66,32,1.74,scattered clouds,2022-07-17 17:56:38
179,Ixtapa,MX,20.7,-105.2,85.23,71,91,3.0,overcast clouds,2022-07-17 17:56:38
180,El Alto,PE,-4.2714,-81.2147,69.46,68,5,17.56,clear sky,2022-07-17 17:56:38
181,Huilong,CN,31.8111,121.655,81.93,94,100,9.64,moderate rain,2022-07-17 17:56:39
182,Airai,TL,-8.9266,125.4092,53.1,84,31,2.51,scattered clouds,2022-07-17 17:56:32
183,Novocheboksarsk,RU,56.111,47.4776,70.36,78,20,0.0,few clouds,2022-07-17 17:56:39
184,Saint-Michel-Des-Saints,CA,46.6834,-73.9159,82.94,38,44,7.43,scattered clouds,2022-07-17 17:56:39
185,Grindavik,IS,63.8424,-22.4338,52.27,82,75,11.5,broken clouds,2022-07-17 17:56:40
186,Cidreira,BR,-30.1811,-50.2056,57.7,62,14,12.8,few clouds,2022-07-17 17:56:40
187,Sibu,MY,2.3,111.8167,79.11,83,40,2.3,scattered clouds,2022-07-17 17:56:41
188,Lata,PT,40.1629,-8.3327,80.17,48,25,8.41,scattered clouds,2022-07-17 17:56:41
189,Canatlan,MX,24.5167,-104.7833,80.19,24,22,11.83,few clouds,2022-07-17 17:56:41
190,Puerto Madryn,AR,-42.7692,-65.0385,53.02,42,60,18.66,broken clouds,2022-07-17 17:54:52
191,Olafsvik,IS,64.8945,-23.7142,51.37,83,63,3.33,broken clouds,2022-07-17 17:56:42
192,Hambantota,LK,6.1241,81.1185,80.65,78,100,16.49,overcast clouds,2022-07-17 17:56:42
193,Mirabad,AF,30.4362,61.8383,99.19,6,0,9.91,clear sky,2022-07-17 17:56:42
194,Vilyuysk,RU,63.7553,121.6247,61.14,98,77,4.32,broken clouds,2022-07-17 17:56:43
195,Dukat,RU,62.55,155.55,50.83,93,100,4.74,light rain,2022-07-17 17:55:10
196,Andenes,NO,69.3143,16.1194,50.94,93,75,5.75,light intensity drizzle,2022-07-17 17:56:43
197,Tilichiki,RU,60.4667,166.1,53.24,89,80,5.93,broken clouds,2022-07-17 17:56:44
198,Vallenar,CL,-28.5708,-70.7581,69.19,15,5,1.7,clear sky,2022-07-17 17:56:44
199,Mareeba,AU,-17.0,145.4333,63.32,90,25,1.99,scattered clouds,2022-07-17 17:56:44
200,Awbari,LY,26.5921,12.7805,91.89,12,1,10.83,clear sky,2022-07-17 17:56:45
201,Moosomin,CA,50.1333,-101.6677,83.61,54,1,8.75,clear sky,2022-07-17 17:56:45
202,Oktyabrskoye,RU,43.0645,44.7417,77.14,65,16,4.47,few clouds,2022-07-17 17:56:45
203,Villarrobledo,ES,39.2699,-2.6012,96.87,14,0,17.45,clear sky,2022-07-17 17:56:46
204,Cherepanovo,RU,54.2222,83.381,49.77,87,17,7.02,few clouds,2022-07-17 17:56:46
205,Pemangkat,ID,1.1667,108.9667,77.97,77,100,5.35,overcast clouds,2022-07-17 17:56:46
206,Barranca,PE,-10.75,-77.7667,65.14,71,24,9.28,few clouds,2022-07-17 17:53:31
207,Sitka,US,57.0531,-135.33,54.81,96,100,7.58,moderate rain,2022-07-17 17:56:47
208,Atasu,KZ,48.6814,71.6433,71.2,54,49,9.73,scattered clouds,2022-07-17 17:56:47
209,Mar Del Plata,AR,-38.0023,-57.5575,60.1,41,0,19.57,clear sky,2022-07-17 17:54:55
210,Kovur,IN,14.4833,79.9833,82.6,73,100,13.15,overcast clouds,2022-07-17 17:56:48
211,Champerico,GT,14.3,-91.9167,90.14,74,76,5.99,broken clouds,2022-07-17 17:56:48
212,Chhapar,IN,27.8167,74.4,91.9,54,19,2.59,moderate rain,2022-07-17 17:56:48
213,South Yuba City,US,39.1166,-121.6391,103.17,35,0,6.91,clear sky,2022-07-17 17:56:49
214,Unai,BR,-16.3575,-46.9061,87.08,25,45,7.63,scattered clouds,2022-07-17 17:56:49
215,Port Elizabeth,ZA,-33.918,25.5701,77.09,59,0,1.14,clear sky,2022-07-17 17:54:58
216,Antanifotsy,MG,-19.65,47.3167,47.98,91,52,5.84,broken clouds,2022-07-17 17:56:11
217,Nalut,LY,30.3333,10.85,94.15,12,0,8.61,clear sky,2022-07-17 17:56:50
218,Dunedin,NZ,-45.8742,170.5036,52.39,71,93,10.6,overcast clouds,2022-07-17 17:55:44
219,Sambava,MG,-14.2667,50.1667,69.75,83,44,14.47,light rain,2022-07-17 17:56:50
220,Sorland,NO,67.667,12.6934,51.66,77,80,14.47,broken clouds,2022-07-17 17:56:50
221,Prince George,CA,53.9166,-122.753,66.25,58,0,4.0,clear sky,2022-07-17 17:51:56
222,Belogorsk,RU,50.9158,128.4611,60.67,94,76,5.12,broken clouds,2022-07-17 17:56:51
223,Sandanski,BG,41.5667,23.2833,77.7,42,6,3.36,clear sky,2022-07-17 17:56:51
224,Itambacuri,BR,-18.0311,-41.685,85.14,31,21,7.9,few clouds,2022-07-17 17:56:52
225,Yerbogachen,RU,61.2767,108.0108,57.4,78,93,2.59,overcast clouds,2022-07-17 17:56:52
226,Lashio,MM,22.9333,97.75,70.2,99,98,0.47,moderate rain,2022-07-17 17:56:52
227,Caravelas,BR,-17.7125,-39.2481,78.21,63,6,7.72,clear sky,2022-07-17 17:56:53
228,Wawa,NG,9.9022,4.4192,76.78,82,97,3.85,light rain,2022-07-17 17:56:53
229,Havelock,US,34.8791,-76.9013,88.99,73,0,9.22,clear sky,2022-07-17 17:54:07
230,Loksa,EE,59.5764,25.7214,57.92,69,97,12.28,light rain,2022-07-17 17:56:54
231,Puerto Gaitan,CO,4.3133,-72.0816,82.08,74,94,4.03,overcast clouds,2022-07-17 17:52:07
232,Naze,JP,28.3667,129.4833,79.72,84,100,16.4,overcast clouds,2022-07-17 17:56:54
233,Belmonte,BR,-15.8631,-38.8828,77.49,68,25,7.87,scattered clouds,2022-07-17 17:54:47
234,Henties Bay,NA,-22.116,14.2845,67.77,48,3,9.66,clear sky,2022-07-17 17:56:55
235,Chokurdakh,RU,70.6333,147.9167,40.06,67,16,11.45,few clouds,2022-07-17 17:56:07
236,Puerto Quijarro,BO,-17.7833,-57.7667,82.83,40,87,3.98,overcast clouds,2022-07-17 17:56:55
237,Bathsheba,BB,13.2167,-59.5167,88.41,78,20,25.32,few clouds,2022-07-17 17:56:55
238,Kristiansund,NO,63.1115,7.732,57.25,94,75,13.8,broken clouds,2022-07-17 17:56:56
239,Zabol,AF,32.25,67.25,76.33,46,5,7.83,clear sky,2022-07-17 17:56:56
240,Usinsk,RU,65.9939,57.5281,63.27,90,99,1.23,overcast clouds,2022-07-17 17:56:56
241,Dawson Creek,CA,55.7666,-120.2362,67.64,45,0,11.5,clear sky,2022-07-17 17:56:57
242,Sohag,EG,26.557,31.6948,93.49,16,4,10.63,clear sky,2022-07-17 17:56:57
243,Yermakovskoye,RU,53.2831,92.4003,60.49,92,100,4.38,overcast clouds,2022-07-17 17:56:58
244,Sibolga,ID,1.7427,98.7792,76.23,83,9,3.2,clear sky,2022-07-17 17:56:58
245,Elmvale,CA,44.5834,-79.8664,86.95,53,83,6.51,broken clouds,2022-07-17 17:56:58
246,Aleksandrov Gay,RU,50.147,48.5704,76.95,43,25,8.63,scattered clouds,2022-07-17 17:56:59
247,Maketu,NZ,-37.7667,176.45,43.05,99,91,3.36,overcast clouds,2022-07-17 17:56:59
248,Beringovskiy,RU,63.05,179.3167,51.71,66,60,32.1,broken clouds,2022-07-17 17:56:59
249,Lebu,CL,-37.6167,-73.65,51.31,84,98,12.88,overcast clouds,2022-07-17 17:55:40
250,Solnechnyy,RU,50.7214,136.6319,60.12,78,91,3.29,overcast clouds,2022-07-17 17:57:00
251,Baglung,NP,28.2719,83.5898,74.53,88,72,1.86,broken clouds,2022-07-17 17:57:00
252,Isangel,VU,-19.55,169.2667,74.19,86,84,15.08,broken clouds,2022-07-17 17:57:00
253,Hovd,MN,48.0056,91.6419,67.6,37,71,9.31,broken clouds,2022-07-17 17:57:01
254,Progreso,MX,21.2833,-89.6667,94.1,56,19,12.73,few clouds,2022-07-17 17:57:01
255,Jacareacanga,BR,-6.2222,-57.7528,99.82,26,37,4.56,scattered clouds,2022-07-17 17:57:01
256,Nueva Guinea,NI,11.6876,-84.4562,80.65,80,73,12.91,broken clouds,2022-07-17 17:57:02
257,Port Hardy,CA,50.6996,-127.4199,55.58,88,100,8.05,light intensity drizzle,2022-07-17 17:53:52
258,Jefferson City,US,38.5767,-92.1735,74.62,56,100,6.17,overcast clouds,2022-07-17 17:57:02
259,Nanortalik,GL,60.1432,-45.2371,43.68,82,51,12.3,broken clouds,2022-07-17 17:57:03
260,Ust-Kuyga,RU,70.0167,135.6,43.92,66,99,4.5,overcast clouds,2022-07-17 17:56:20
261,Estremoz,PT,38.8443,-7.5859,94.03,20,70,15.32,broken clouds,2022-07-17 17:57:03
262,Atherton,GB,53.5237,-2.4935,88.29,34,95,5.99,overcast clouds,2022-07-17 17:57:03
263,Seoul,KR,37.5683,126.9778,74.77,88,20,4.61,few clouds,2022-07-17 17:52:34
264,Fairbanks,US,64.8378,-147.7164,60.1,78,75,0.0,light rain,2022-07-17 17:54:27
265,Yellandu,IN,17.6,80.3333,75.56,94,100,4.38,overcast clouds,2022-07-17 17:52:07
266,Qaqortoq,GL,60.7167,-46.0333,46.92,76,10,10.65,clear sky,2022-07-17 17:57:04
267,Sistranda,NO,63.7256,8.834,55.36,86,72,21.52,broken clouds,2022-07-17 17:57:05
268,Tunoshna,RU,57.5459,40.1254,64.38,68,0,2.24,clear sky,2022-07-17 17:57:05
269,Pundaguitan,PH,6.3711,126.1689,81.99,75,99,8.14,moderate rain,2022-07-17 17:57:05
270,Vestmannaeyjar,IS,63.4427,-20.2734,52.79,87,20,16.11,few clouds,2022-07-17 17:52:47
271,Lavrentiya,RU,65.5833,-171.0,46.65,94,100,9.51,overcast clouds,2022-07-17 17:57:06
272,Kyshtovka,RU,56.555,76.6271,53.83,85,8,7.47,clear sky,2022-07-17 17:57:06
273,Kodiak,US,57.79,-152.4072,56.14,69,49,6.22,scattered clouds,2022-07-17 17:57:06
274,Kortkeros,RU,61.8106,51.5806,66.2,65,27,2.66,scattered clouds,2022-07-17 17:57:07
275,Haines Junction,CA,60.7522,-137.5108,58.95,55,100,10.36,overcast clouds,2022-07-17 17:57:07
276,Rio Grande,BR,-32.035,-52.0986,57.31,61,3,13.22,clear sky,2022-07-17 17:53:19
277,Saint-Georges,GD,12.0564,-61.7485,85.68,74,40,24.16,scattered clouds,2022-07-17 17:56:51
278,Xuddur,SO,4.1213,43.8894,77.79,53,98,21.59,overcast clouds,2022-07-17 17:57:08
279,Baghdad,IQ,33.3406,44.4009,102.11,14,0,10.36,clear sky,2022-07-17 17:53:34
280,Lazaro Cardenas,MX,17.9583,-102.2,87.58,59,90,4.09,overcast clouds,2022-07-17 17:57:08
281,Bosaso,SO,11.2842,49.1816,94.17,39,0,12.39,clear sky,2022-07-17 17:57:09
282,Ribeira Grande,PT,38.5167,-28.7,77.4,73,20,18.41,few clouds,2022-07-17 17:57:09
283,Tual,ID,-5.6667,132.75,78.73,78,96,20.49,overcast clouds,2022-07-17 17:57:09
284,Gamba,GA,-2.65,10.0,71.64,81,27,8.88,scattered clouds,2022-07-17 17:57:10
285,Khoy,IR,38.5504,44.9535,83.75,25,0,3.31,clear sky,2022-07-17 17:57:10
286,Chirongui,YT,-12.9319,45.1483,71.53,71,10,5.66,light rain,2022-07-17 17:57:10
287,Aksarka,RU,66.5606,67.7975,61.14,57,31,2.71,scattered clouds,2022-07-17 17:57:11
288,Baykit,RU,61.67,96.37,51.66,96,71,3.27,broken clouds,2022-07-17 17:57:11
289,Hervey Bay,AU,-25.2986,152.8535,61.99,76,100,5.75,overcast clouds,2022-07-17 17:57:11
290,Gunjur,GM,13.2019,-16.7339,80.73,75,84,13.62,broken clouds,2022-07-17 17:57:12
291,Lompoc,US,34.6391,-120.4579,90.01,49,3,5.97,clear sky,2022-07-17 17:57:12
292,Saint-Ambroise,CA,48.5501,-71.3324,82.58,57,63,4.61,broken clouds,2022-07-17 17:57:13
293,Barstow,US,34.8986,-117.0228,102.16,15,49,6.69,scattered clouds,2022-07-17 17:55:02
294,Neiafu,TO,-18.65,-173.9833,74.08,88,75,9.22,broken clouds,2022-07-17 17:57:13
295,Almaznyy,RU,48.0448,40.045,75.04,34,60,9.69,broken clouds,2022-07-17 17:57:13
296,Riachao Do Jacuipe,BR,-11.8069,-39.3856,84.74,33,55,13.73,broken clouds,2022-07-17 17:57:14
297,Kesova Gora,RU,57.5836,37.2922,57.49,74,99,3.2,overcast clouds,2022-07-17 17:57:14
298,Markova,UA,48.6758,24.4138,56.71,62,87,4.97,overcast clouds,2022-07-17 17:57:14
299,Port Augusta,AU,-32.5,137.7667,46.83,86,47,5.14,scattered clouds,2022-07-17 17:57:15
300,Sao Borja,BR,-28.6606,-56.0044,54.95,63,0,2.1,clear sky,2022-07-17 17:57:15
301,Itarema,BR,-2.9248,-39.9167,85.33,63,46,17.74,scattered clouds,2022-07-17 17:57:15
302,Dubrovnik,HR,42.6481,18.0922,83.84,47,0,6.91,clear sky,2022-07-17 17:53:54
303,Rio Cuarto,AR,-33.1307,-64.3499,64.47,26,0,24.16,clear sky,2022-07-17 17:57:16
304,Koumac,NC,-20.5667,164.2833,68.2,79,32,3.11,scattered clouds,2022-07-17 17:57:16
305,Presidente Epitacio,BR,-21.7633,-52.1156,78.85,43,100,7.49,overcast clouds,2022-07-17 17:57:17
306,Nkhata Bay,MW,-11.6066,34.2907,66.76,71,11,4.18,few clouds,2022-07-17 17:57:17
307,Creel,MX,27.75,-107.6333,74.08,40,89,8.97,overcast clouds,2022-07-17 17:57:17
308,Santo Domingo,DO,18.5001,-69.9886,91.08,64,40,11.5,scattered clouds,2022-07-17 17:57:18
309,Vostok,RU,46.4856,135.8833,55.27,93,88,2.3,overcast clouds,2022-07-17 17:57:18
310,Yhu,PY,-25.05,-55.9167,61.38,46,4,4.47,clear sky,2022-07-17 17:57:18
311,Pyinmana,MM,19.7333,96.2167,76.75,94,98,5.48,overcast clouds,2022-07-17 17:57:19
312,Chadiza,ZM,-14.0678,32.4392,54.5,72,57,4.38,broken clouds,2022-07-17 17:57:19
313,Broken Hill,AU,-31.95,141.4333,42.31,91,7,7.25,clear sky,2022-07-17 17:57:19
314,Erice,IT,38.037,12.5865,81.36,63,0,9.53,clear sky,2022-07-17 17:57:20
315,Flinders,AU,-34.5833,150.8552,53.26,70,43,5.99,scattered clouds,2022-07-17 17:57:20
316,Thompson,CA,55.7435,-97.8558,77.16,61,40,4.61,scattered clouds,2022-07-17 17:52:32
317,San Ferdinando Di Puglia,IT,41.3026,16.0705,82.26,43,60,2.44,broken clouds,2022-07-17 17:55:21
318,Latung,PH,5.5,120.8833,82.31,73,100,4.74,moderate rain,2022-07-17 17:57:21
319,Cairns,AU,-16.9167,145.7667,67.95,85,100,6.91,overcast clouds,2022-07-17 17:57:21
320,Chapais,CA,49.7834,-74.8492,74.98,31,79,8.03,broken clouds,2022-07-17 17:57:21
321,Pangnirtung,CA,66.1451,-65.7125,44.6,81,40,14.97,scattered clouds,2022-07-17 17:57:22
322,Gobabis,NA,-22.45,18.9667,54.48,37,0,11.05,clear sky,2022-07-17 17:57:22
323,Teya,RU,60.3778,92.6267,50.13,92,83,3.29,broken clouds,2022-07-17 17:57:22
324,Katobu,ID,-4.9408,122.5276,73.49,92,90,4.21,overcast clouds,2022-07-17 17:57:23
325,Taseyevo,RU,57.2169,94.8978,61.81,66,82,7.65,broken clouds,2022-07-17 17:57:23
326,San Quintin,MX,30.4833,-115.95,74.46,67,17,8.68,few clouds,2022-07-17 17:57:23
327,Guangyuan,CN,32.442,105.823,74.57,65,100,5.3,overcast clouds,2022-07-17 17:57:24
328,Bousse,BF,12.6606,-1.8922,80.55,64,82,5.14,broken clouds,2022-07-17 17:57:24
329,Tibati,CM,6.4667,12.6333,67.77,96,99,4.38,overcast clouds,2022-07-17 17:57:25
330,Krasnovishersk,RU,60.4078,57.082,62.13,75,63,2.89,broken clouds,2022-07-17 17:57:25
331,Kruisfontein,ZA,-34.0033,24.7314,74.88,27,1,9.75,clear sky,2022-07-17 17:55:51
332,Ormara,PK,25.2088,64.6357,84.9,85,97,15.88,heavy intensity rain,2022-07-17 17:57:25
333,Malanje,AO,-9.5402,16.341,73.06,30,57,3.11,broken clouds,2022-07-17 17:57:26
334,Arkansas City,US,37.062,-97.0384,99.52,35,97,10.58,overcast clouds,2022-07-17 17:54:13
335,Aosta,IT,45.7667,7.4167,77.94,46,20,16.11,few clouds,2022-07-17 17:57:26
336,Vikulovo,RU,56.8167,70.6107,58.46,74,49,5.17,scattered clouds,2022-07-17 17:57:27
337,Ayan,RU,56.45,138.1667,57.38,93,98,10.4,overcast clouds,2022-07-17 17:57:27
338,Trinidad,BO,-14.8333,-64.9,78.73,48,43,7.23,scattered clouds,2022-07-17 17:57:27
339,Road Town,VG,18.4167,-64.6167,87.84,66,40,16.11,scattered clouds,2022-07-17 17:55:29
340,Ladario,BR,-19.0047,-57.6017,64.69,55,0,10.36,clear sky,2022-07-17 17:57:28
341,Mount Isa,AU,-20.7333,139.5,47.97,81,3,0.0,clear sky,2022-07-17 17:57:28
342,Alliance,US,40.9153,-81.1059,74.28,93,100,1.95,moderate rain,2022-07-17 17:57:29
343,Goderich,CA,43.7501,-81.7165,73.72,73,100,8.05,overcast clouds,2022-07-17 17:57:29
344,Songjianghe,CN,42.1859,127.479,57.52,99,56,4.27,broken clouds,2022-07-17 17:57:29
345,Frederikshavn,DK,57.4407,10.5366,62.62,76,100,19.93,overcast clouds,2022-07-17 17:55:04
346,Valparaiso,CL,-33.0393,-71.6273,58.64,58,0,10.36,clear sky,2022-07-17 17:57:30
347,Dingle,PH,10.9995,122.6711,75.09,94,100,1.95,overcast clouds,2022-07-17 17:57:30
348,Berlevag,NO,70.8578,29.0864,55.4,87,100,4.61,overcast clouds,2022-07-17 17:55:30
349,Tarauaca,BR,-8.1614,-70.7656,91.13,48,57,1.34,broken clouds,2022-07-17 17:57:31
350,Turukhansk,RU,65.8167,87.9833,56.01,65,71,13.85,broken clouds,2022-07-17 17:57:31
351,Quelimane,MZ,-17.8786,36.8883,64.85,95,41,4.7,light rain,2022-07-17 17:57:29
352,Jacqueville,CI,5.2052,-4.4146,76.55,81,85,14.52,overcast clouds,2022-07-17 17:57:31
353,Igarka,RU,67.4667,86.5833,52.79,72,71,7.87,broken clouds,2022-07-17 17:57:32
354,Waitati,NZ,-45.75,170.5667,52.95,69,100,9.1,overcast clouds,2022-07-17 17:57:32
355,Christchurch,NZ,-43.5333,172.6333,53.8,58,59,5.75,broken clouds,2022-07-17 17:57:32
356,Tyazhinskiy,RU,56.116,88.524,52.02,98,69,10.27,broken clouds,2022-07-17 17:57:33
357,Kemin,KG,42.7846,75.6892,71.4,23,0,4.72,clear sky,2022-07-17 17:57:33
358,Kupang,ID,-10.1667,123.5833,71.02,81,0,8.19,clear sky,2022-07-17 17:57:33
359,Riyadh,SA,24.6877,46.7219,100.54,11,89,6.4,overcast clouds,2022-07-17 17:53:26
360,Faya,SA,18.3851,42.4509,75.31,39,72,5.95,broken clouds,2022-07-17 17:57:34
361,Daru,PG,-9.0763,143.2092,75.85,89,79,10.74,broken clouds,2022-07-17 17:57:34
362,Gubskaya,RU,44.3164,40.6358,70.75,74,55,3.38,broken clouds,2022-07-17 17:57:34
363,Ternate,ID,0.8,127.4,79.12,82,100,5.77,moderate rain,2022-07-17 17:57:35
364,Sekoma,BW,-24.4,23.8833,58.57,42,0,7.61,clear sky,2022-07-17 17:57:35
365,Ocampo,MX,21.65,-101.5,73.81,39,60,9.24,broken clouds,2022-07-17 17:57:35
366,Vardo,NO,70.3705,31.1107,57.18,82,0,5.75,clear sky,2022-07-17 17:57:36
367,Coihaique,CL,-45.5752,-72.0662,42.75,61,75,4.61,broken clouds,2022-07-17 17:55:43
368,Ca Mau,VN,9.1769,105.15,78.17,90,74,4.03,broken clouds,2022-07-17 17:57:36
369,Mahon,ES,39.8885,4.2658,88.36,51,0,5.75,clear sky,2022-07-17 17:57:37
370,Topolobampo,MX,25.6,-109.05,90.23,56,27,12.01,scattered clouds,2022-07-17 17:57:37
371,Mahina,PF,-17.5065,-149.489,71.37,83,20,3.44,light rain,2022-07-17 17:57:37
372,Fare,PF,-16.7,-151.0167,76.44,70,78,17.85,light rain,2022-07-17 17:55:07
373,Pisco,PE,-13.7,-76.2167,64.02,72,3,9.22,haze,2022-07-17 17:57:10
374,Nizwa,OM,22.9333,57.5333,87.48,57,100,2.57,overcast clouds,2022-07-17 17:57:38
375,Ust-Koksa,RU,50.2696,85.6108,56.91,96,88,2.59,overcast clouds,2022-07-17 17:57:38
376,Aswan,EG,24.0934,32.907,101.5,10,0,12.66,clear sky,2022-07-17 17:57:39
377,North Bend,US,43.4065,-124.2243,73.24,88,0,1.99,clear sky,2022-07-17 17:57:39
378,Vao,NC,-22.6667,167.4833,70.32,74,93,18.77,overcast clouds,2022-07-17 17:57:39
379,Nome,US,64.5011,-165.4064,55.17,67,45,7.76,scattered clouds,2022-07-17 17:57:40
380,Port Lincoln,AU,-34.7333,135.8667,53.73,53,99,8.97,overcast clouds,2022-07-17 17:57:40
381,Urucurituba,BR,-2.6833,-57.6667,95.29,37,43,5.3,scattered clouds,2022-07-17 17:57:41
382,Jyvaskyla,FI,62.2415,25.7209,58.12,78,40,5.75,scattered clouds,2022-07-17 17:57:41
383,Virden,US,39.5009,-89.7679,73.67,94,100,5.3,overcast clouds,2022-07-17 17:57:41
384,Manta,EC,-0.95,-80.7333,76.78,78,75,11.5,broken clouds,2022-07-17 17:57:42
385,Kieta,PG,-6.2167,155.6333,78.44,84,41,5.26,scattered clouds,2022-07-17 17:57:42
386,Nola,IT,40.922,14.5329,89.37,69,16,2.84,few clouds,2022-07-17 17:57:42
387,Mocajuba,BR,-2.5842,-49.5072,96.28,32,86,4.12,overcast clouds,2022-07-17 17:57:43
388,Acarau,BR,-2.8856,-40.12,84.42,66,51,16.84,broken clouds,2022-07-17 17:55:21
389,Cristalina,BR,-16.7686,-47.6136,79.21,24,44,9.08,scattered clouds,2022-07-17 17:57:43
390,Jumla,NP,29.2747,82.1838,63.05,97,62,1.14,broken clouds,2022-07-17 17:57:44
391,Tres Palos,MX,18.1833,-101.6167,83.43,69,98,1.48,overcast clouds,2022-07-17 17:57:44
392,Bull Savanna,JM,17.8868,-77.5902,87.13,56,4,20.54,clear sky,2022-07-17 17:57:44
393,Bom Jesus,BR,-9.0744,-44.3586,94.89,18,9,9.1,clear sky,2022-07-17 17:57:45
394,Virginia Beach,US,36.8529,-75.978,93.02,62,40,11.5,scattered clouds,2022-07-17 17:52:49
395,Lethem,GY,3.3803,-59.7968,87.58,63,57,2.24,broken clouds,2022-07-17 17:57:45
396,Prince Rupert,CA,54.3161,-130.3201,55.49,88,40,3.44,scattered clouds,2022-07-17 17:57:45
397,Hearst,CA,49.6835,-83.6665,82.65,30,23,6.69,few clouds,2022-07-17 17:57:46
398,Carnarvon,AU,-24.8667,113.6333,67.15,79,23,11.54,few clouds,2022-07-17 17:57:46
399,Saint-Denis,FR,48.9167,2.3333,90.36,23,0,8.05,clear sky,2022-07-17 17:57:46
400,Wilmington,US,34.2257,-77.9447,88.9,68,1,9.22,clear sky,2022-07-17 17:52:55
401,Santa Fe,AR,-31.6333,-60.7,60.03,44,0,8.99,clear sky,2022-07-17 17:57:47
402,Murgab,TM,37.4966,61.9714,89.47,23,0,9.22,clear sky,2022-07-17 17:57:47
403,Samaniego,CO,1.3385,-77.5957,67.71,64,34,1.01,light rain,2022-07-17 17:57:48
404,Buala,SB,-8.145,159.5921,79.0,82,68,8.12,broken clouds,2022-07-17 17:52:59
405,Zamania,IN,25.4333,83.5667,92.98,49,67,13.98,broken clouds,2022-07-17 17:57:48
406,Alta Floresta,BR,-9.8756,-56.0861,98.42,23,40,12.66,scattered clouds,2022-07-17 17:55:33
407,Nurota,UZ,40.5614,65.6886,89.37,14,0,15.68,clear sky,2022-07-17 17:57:49
408,Watsa,CD,3.0372,29.5355,65.66,98,57,5.66,moderate rain,2022-07-17 17:57:49
409,Ucluelet,CA,48.9329,-125.5528,61.11,89,70,1.01,broken clouds,2022-07-17 17:54:52
410,Belize,BZ,17.25,-88.75,88.12,40,90,6.29,overcast clouds,2022-07-17 17:56:55
411,Meadow Lake,US,34.8014,-106.5436,93.85,24,11,5.37,few clouds,2022-07-17 17:57:50
412,Mardin,TR,37.3131,40.7436,84.69,15,0,2.75,clear sky,2022-07-17 17:57:50
413,Holoby,UA,51.0865,25.0077,63.05,69,62,9.28,broken clouds,2022-07-17 17:57:50
414,General Pico,AR,-35.6566,-63.7568,62.51,25,14,18.7,few clouds,2022-07-17 17:56:31
415,Labuhan,ID,-6.8844,112.2051,77.34,86,100,12.28,overcast clouds,2022-07-17 17:53:03
416,Paamiut,GL,61.994,-49.6678,42.08,90,100,7.16,overcast clouds,2022-07-17 17:53:51
417,Vanino,RU,49.0869,140.2543,55.09,98,100,5.1,light rain,2022-07-17 17:57:51
418,Sargodha,PK,32.0836,72.6711,86.81,56,58,2.98,broken clouds,2022-07-17 17:57:51
419,Anadyr,RU,64.75,177.4833,45.1,56,0,24.61,clear sky,2022-07-17 17:57:52
420,Nelson Bay,AU,-32.7167,152.15,57.0,81,0,5.99,clear sky,2022-07-17 17:57:52
421,Bridlington,GB,54.0831,-0.1919,86.9,56,98,9.95,overcast clouds,2022-07-17 17:56:30
422,Barcelona,ES,41.3888,2.159,95.14,56,0,6.91,clear sky,2022-07-17 17:57:52
423,Muscle Shoals,US,34.7448,-87.6675,93.65,53,80,5.01,broken clouds,2022-07-17 17:57:53
424,Acapulco,MX,16.8634,-99.8901,86.36,62,94,5.93,overcast clouds,2022-07-17 17:57:06
425,Krasnoborsk,RU,61.5598,45.934,60.96,78,94,3.42,overcast clouds,2022-07-17 17:57:53
426,Bemidji,US,47.4736,-94.8803,86.05,64,40,9.22,scattered clouds,2022-07-17 17:57:24
427,Havre-Saint-Pierre,CA,50.2334,-63.5986,68.36,68,0,17.27,clear sky,2022-07-17 17:57:54
428,Halifax,CA,44.6453,-63.5724,76.89,59,87,5.99,overcast clouds,2022-07-17 17:54:34
429,Okhotsk,RU,59.3833,143.3,52.95,97,19,1.25,few clouds,2022-07-17 17:55:17
430,Challapata,BO,-18.9,-66.7667,49.78,21,54,8.63,broken clouds,2022-07-17 17:57:54
431,Kazanskoye,RU,55.6448,69.235,62.22,86,100,4.59,overcast clouds,2022-07-17 17:57:55
432,Samarai,PG,-10.6167,150.6667,78.84,84,33,8.32,light rain,2022-07-17 17:57:55
433,Yanam,IN,16.7333,82.2167,76.84,93,100,4.99,overcast clouds,2022-07-17 17:57:55
434,Sioux Lookout,CA,50.1001,-91.917,82.47,51,40,11.5,scattered clouds,2022-07-17 17:57:56
435,Katima Mulilo,NA,-17.5,24.2667,58.89,36,0,6.06,clear sky,2022-07-17 17:57:56
436,Safford,US,32.834,-109.7076,96.12,24,0,4.09,clear sky,2022-07-17 17:57:56
437,Ziro,IN,27.6333,93.8333,61.88,98,76,0.38,broken clouds,2022-07-17 17:57:57
438,Hamilton,US,39.1834,-84.5333,75.76,93,100,8.05,light rain,2022-07-17 17:55:26
439,Kuusamo,FI,65.9667,29.1833,60.84,72,75,9.22,broken clouds,2022-07-17 17:57:57
440,Jingdezhen,CN,29.2947,117.2079,77.11,92,100,2.17,overcast clouds,2022-07-17 17:57:57
441,Udala,ES,43.0778,-2.5125,94.69,43,15,2.51,few clouds,2022-07-17 17:57:58
442,Zhangjiakou,CN,40.81,114.8794,69.94,49,30,4.81,scattered clouds,2022-07-17 17:57:58
443,Ryotsu,JP,38.0833,138.4333,73.22,90,46,5.44,scattered clouds,2022-07-17 17:57:58
444,Ouadda,CF,8.0777,22.4007,68.61,96,100,3.85,overcast clouds,2022-07-17 17:57:59
445,Nhulunbuy,AU,-12.2333,136.7667,70.41,94,40,6.91,scattered clouds,2022-07-17 17:55:15
446,Porto Belo,BR,-27.1578,-48.5531,70.68,65,100,12.19,overcast clouds,2022-07-17 17:57:59
447,Yulara,AU,-25.2406,130.9889,50.05,26,19,9.62,few clouds,2022-07-17 17:53:58
448,Talaya,RU,61.3833,152.75,61.2,96,85,5.97,overcast clouds,2022-07-17 17:58:00
449,Adrar,MR,20.5022,-10.0711,110.43,7,9,12.06,clear sky,2022-07-17 17:58:00
450,Kondinskoye,RU,59.6481,67.41,61.03,62,97,3.58,overcast clouds,2022-07-17 17:58:00
451,Khombole,SN,14.7667,-16.7,85.01,45,70,13.87,broken clouds,2022-07-17 17:58:01
452,Mountain Home,US,43.133,-115.6912,92.28,16,91,5.55,overcast clouds,2022-07-17 17:58:01
453,Mweka,CD,-4.85,21.5667,81.14,39,90,0.58,overcast clouds,2022-07-17 17:58:02
454,Kavaratti,IN,10.5669,72.642,82.36,76,100,17.85,overcast clouds,2022-07-17 17:58:02
455,Umba,RU,66.6871,34.3429,56.3,80,25,8.25,light rain,2022-07-17 17:58:02
456,Klamath Falls,US,42.2249,-121.7817,80.87,42,0,4.0,clear sky,2022-07-17 17:53:43
457,Korostyshiv,UA,50.3172,29.0563,54.59,87,55,10.58,broken clouds,2022-07-17 17:58:03
458,Windhoek,NA,-22.5594,17.0832,62.8,27,2,3.44,clear sky,2022-07-17 17:58:03
459,Leczyca,PL,52.0596,19.1997,70.09,51,37,7.18,scattered clouds,2022-07-17 17:58:03
460,West Wendover,US,40.7391,-114.0733,93.11,17,22,5.17,few clouds,2022-07-17 17:58:04
461,Bealanana,MG,-14.55,48.7333,54.27,95,33,5.01,scattered clouds,2022-07-17 17:58:04
462,Puerto Narino,CO,-3.7703,-70.3831,85.1,75,42,4.54,scattered clouds,2022-07-17 17:58:04
463,Lasa,IT,46.6166,10.7002,75.29,68,19,0.67,few clouds,2022-07-17 17:58:05
464,Ferme-Neuve,CA,46.7001,-75.4493,82.22,41,63,5.53,broken clouds,2022-07-17 17:58:05
465,Mahanoro,MG,-19.9,48.8,67.62,84,57,6.85,moderate rain,2022-07-17 17:58:06
466,Paraisopolis,BR,-22.5542,-45.78,87.04,39,73,2.71,broken clouds,2022-07-17 17:58:06
467,Vyazma,RU,55.2104,34.2951,58.6,71,59,1.14,broken clouds,2022-07-17 17:58:06
468,Fort Nelson,CA,58.8053,-122.7002,67.59,56,75,3.44,broken clouds,2022-07-17 17:58:07
469,Qasigiannguit,GL,68.8193,-51.1922,46.38,61,21,1.28,few clouds,2022-07-17 17:58:07
470,Tigre,AR,-34.426,-58.5796,59.27,48,0,13.8,clear sky,2022-07-17 17:58:07
471,Lorengau,PG,-2.0226,147.2712,81.5,80,90,9.71,moderate rain,2022-07-17 17:58:08
472,Volchansk,RU,59.9378,60.081,59.09,95,60,1.59,broken clouds,2022-07-17 17:58:08
473,Bonavista,CA,48.6499,-53.1147,65.17,65,13,19.06,few clouds,2022-07-17 17:58:09
474,Saint-Pierre,RE,-21.3393,55.4781,69.91,72,40,14.97,scattered clouds,2022-07-17 17:58:09
475,Quime,BO,-16.9833,-67.2167,57.24,64,93,8.16,overcast clouds,2022-07-17 17:58:09
476,Lambari,BR,-21.9756,-45.3503,83.62,34,66,2.3,broken clouds,2022-07-17 17:58:10
477,Mbanza-Ngungu,CD,-5.25,14.8667,74.61,55,43,5.53,scattered clouds,2022-07-17 17:58:10
478,Dzaoudzi,YT,-12.7887,45.2699,71.49,88,100,5.75,overcast clouds,2022-07-17 17:58:10
479,San Cristobal,VE,7.7669,-72.225,80.78,58,78,7.31,broken clouds,2022-07-17 17:54:19
480,Vanimo,PG,-2.6741,141.3028,75.6,89,100,3.65,overcast clouds,2022-07-17 17:58:11
481,Mitu,CO,1.1983,-70.1733,84.43,71,75,2.24,broken clouds,2022-07-17 17:58:11
482,Tautira,PF,-17.7333,-149.15,74.89,72,62,14.72,broken clouds,2022-07-17 17:53:45
483,Kempele,FI,64.9131,25.5034,61.12,77,40,6.91,scattered clouds,2022-07-17 17:58:12
484,Mhlambanyatsi,SZ,-26.45,31.0167,46.51,77,0,2.35,clear sky,2022-07-17 17:58:12
485,Malinovskiy,RU,61.1953,62.8397,61.11,87,100,4.32,overcast clouds,2022-07-17 17:58:12
486,Half Moon Bay,US,37.4636,-122.4286,83.88,72,40,9.22,mist,2022-07-17 17:58:13
487,Saint-Francois,FR,46.4154,3.9054,87.24,30,0,4.61,clear sky,2022-07-17 17:58:13
488,Waw,SS,7.7029,27.9953,74.12,82,53,4.16,broken clouds,2022-07-17 17:58:13
489,Neuquen,AR,-38.9516,-68.0591,55.29,41,0,10.36,clear sky,2022-07-17 17:56:16
490,Nemuro,JP,43.3236,145.575,62.62,100,100,11.05,moderate rain,2022-07-17 17:58:14
491,Silver City,US,32.7701,-108.2803,87.76,24,0,9.22,clear sky,2022-07-17 17:56:01
492,Rio Verde De Mato Grosso,BR,-18.9181,-54.8442,87.76,37,72,0.92,broken clouds,2022-07-17 17:58:15
493,Cap Malheureux,MU,-19.9842,57.6142,69.48,66,38,8.99,scattered clouds,2022-07-17 17:58:15
494,Kapit,MY,2.0167,112.9333,74.44,93,100,1.5,overcast clouds,2022-07-17 17:58:15
495,Kodinsk,RU,58.6881,99.1844,54.99,84,72,4.09,broken clouds,2022-07-17 17:58:16
496,Dokka,NO,60.84,10.0618,62.29,61,100,8.97,overcast clouds,2022-07-17 17:58:16
497,Orsha,BY,54.5153,30.4053,55.81,89,86,7.29,overcast clouds,2022-07-17 17:58:16
498,Uray,RU,60.1247,64.7758,61.83,57,89,1.07,overcast clouds,2022-07-17 17:58:17
499,Zhangye,CN,38.9342,100.4517,74.05,33,97,4.05,overcast clouds,2022-07-17 17:58:17
500,Banda Aceh,ID,5.5577,95.3222,79.74,81,84,4.59,light rain,2022-07-17 17:58:18
501,Devils Lake,US,48.1128,-98.8651,89.71,65,0,5.01,clear sky,2022-07-17 17:58:18
502,Vila Franca Do Campo,PT,37.7167,-25.4333,70.21,71,47,5.91,scattered clouds,2022-07-17 17:58:18
503,Pitimbu,BR,-7.4706,-34.8086,77.59,80,50,18.14,scattered clouds,2022-07-17 17:58:19
504,Noumea,NC,-22.2763,166.4572,72.0,99,44,7.81,scattered clouds,2022-07-17 17:58:19
505,Impfondo,CG,1.6381,18.0667,72.59,97,94,3.4,moderate rain,2022-07-17 17:58:19
506,Avera,US,33.194,-82.5271,91.54,42,0,6.17,clear sky,2022-07-17 17:58:20
507,Hanzhong,CN,33.0728,107.0303,74.55,60,78,1.52,broken clouds,2022-07-17 17:58:20
508,Sri Aman,MY,1.2376,111.4621,75.25,94,98,0.0,overcast clouds,2022-07-17 17:57:31
509,Stephenville,US,32.2207,-98.2023,101.77,30,0,8.05,clear sky,2022-07-17 17:58:20
510,Viedma,AR,-40.8135,-62.9967,54.77,36,42,28.5,scattered clouds,2022-07-17 17:58:21
511,Rio Tercero,AR,-32.173,-64.1141,65.44,23,0,19.55,clear sky,2022-07-17 17:58:21
512,Gusau,NG,12.1628,6.6614,74.23,86,99,6.33,moderate rain,2022-07-17 17:58:22
513,Jiayuguan,CN,39.8167,98.3,75.61,34,94,18.92,overcast clouds,2022-07-17 17:58:22
514,Lexington,US,37.9887,-84.4777,86.09,65,100,1.01,overcast clouds,2022-07-17 17:57:37
515,Cikampek,ID,-6.4197,107.4558,75.22,90,100,1.43,overcast clouds,2022-07-17 17:58:22
516,Druzhba,UA,52.0428,33.9453,55.8,90,62,4.99,light rain,2022-07-17 17:58:23
517,Rameswaram,IN,9.2833,79.3,82.67,82,99,11.45,overcast clouds,2022-07-17 17:58:23
518,Nicoya,CR,10.1483,-85.452,85.73,65,20,4.21,few clouds,2022-07-17 17:58:24
519,Faanui,PF,-16.4833,-151.75,76.59,72,62,19.1,light rain,2022-07-17 17:56:58
520,Sangmelima,CM,2.9333,11.9833,70.68,83,100,1.79,overcast clouds,2022-07-17 17:58:24
521,Namibe,AO,-15.1961,12.1522,63.23,88,100,12.66,overcast clouds,2022-07-17 17:58:24
522,Bilibino,RU,68.0546,166.4372,30.83,71,47,17.02,scattered clouds,2022-07-17 17:58:25
523,Teahupoo,PF,-17.8333,-149.2667,66.16,69,69,13.94,broken clouds,2022-07-17 17:58:25
524,Pudozh,RU,61.8099,36.5345,54.41,93,59,7.45,light rain,2022-07-17 17:58:26
525,Ginda,IN,30.6945,78.4932,68.88,88,22,2.75,few clouds,2022-07-17 17:58:26
526,Palauig,PH,15.435,119.9045,79.27,80,98,3.53,overcast clouds,2022-07-17 17:58:26
527,Sumbe,AO,-11.2061,13.8437,68.52,90,19,7.47,few clouds,2022-07-17 17:58:27
528,Mala,PE,-12.6581,-76.6308,66.92,70,20,6.76,few clouds,2022-07-17 17:58:27
529,Kalabo,ZM,-14.97,22.6814,60.6,31,1,6.46,clear sky,2022-07-17 17:58:27
530,Atagay,RU,55.1033,99.3875,54.81,89,67,4.76,broken clouds,2022-07-17 17:58:28
531,Leningradskiy,RU,69.3833,178.4167,31.98,82,60,21.79,broken clouds,2022-07-17 17:58:28
532,Goundi,TD,9.3627,17.366,70.68,97,100,3.47,light rain,2022-07-17 17:58:28
533,Meulaboh,ID,4.1363,96.1285,77.72,86,66,2.75,broken clouds,2022-07-17 17:58:29
534,Puerto Escondido,MX,15.85,-97.0667,85.26,63,100,4.9,overcast clouds,2022-07-17 17:58:29
535,Birjand,IR,32.8663,59.2211,84.67,10,0,6.91,clear sky,2022-07-17 17:58:30
536,Scottsbluff,US,41.8666,-103.6672,96.78,35,0,1.81,clear sky,2022-07-17 17:54:29
537,Placido De Castro,BR,-10.3353,-67.1856,94.82,37,64,3.09,broken clouds,2022-07-17 17:58:30
538,Angoche,MZ,-16.2325,39.9086,70.57,84,33,4.94,light rain,2022-07-17 17:58:30
539,Asau,RO,46.4333,26.4,69.28,49,30,8.39,scattered clouds,2022-07-17 17:55:52
540,Kosa,RU,59.9445,54.9977,60.82,67,56,2.93,broken clouds,2022-07-17 17:58:31
541,Urucara,BR,-2.5364,-57.76,94.51,38,66,5.7,broken clouds,2022-07-17 17:58:31
542,Yeppoon,AU,-23.1333,150.7333,51.58,89,75,5.91,broken clouds,2022-07-17 17:58:32
543,Hienghene,NC,-20.6833,164.9333,67.77,83,66,10.16,broken clouds,2022-07-17 17:58:32
544,Deputatskiy,RU,69.3,139.9,43.05,73,96,1.66,overcast clouds,2022-07-17 17:58:32
545,Pacific Grove,US,36.6177,-121.9166,70.21,94,13,8.01,few clouds,2022-07-17 17:58:33
546,Usogorsk,RU,63.4106,48.6872,60.08,70,71,3.56,broken clouds,2022-07-17 17:58:33
547,Kalmunai,LK,7.4167,81.8167,81.84,81,100,2.86,overcast clouds,2022-07-17 17:58:33
548,Puerto Del Rosario,ES,28.5004,-13.8627,76.75,73,20,21.85,few clouds,2022-07-17 17:58:34
549,Mutoko,ZW,-17.397,32.2268,58.95,52,95,4.94,overcast clouds,2022-07-17 17:58:34
550,Mangan,IN,27.5167,88.5333,77.58,93,99,0.16,overcast clouds,2022-07-17 17:58:34
551,Paragominas,BR,-2.9667,-47.4833,90.68,41,96,3.44,overcast clouds,2022-07-17 17:58:35
552,Ajdabiya,LY,30.7554,20.2263,82.8,55,0,21.68,clear sky,2022-07-17 17:58:35
553,Hastings,GB,50.8552,0.5729,82.27,41,82,11.5,broken clouds,2022-07-17 17:58:36
554,Ilulissat,GL,69.2167,-51.1,47.89,55,22,5.77,few clouds,2022-07-17 17:58:36
555,Turkeve,HU,47.1,20.75,80.65,22,36,7.67,scattered clouds,2022-07-17 17:58:36
556,Kawhia,NZ,-38.0651,174.8183,44.01,90,99,5.57,overcast clouds,2022-07-17 17:58:37
557,Cartagena,CO,10.3997,-75.5144,87.42,70,75,10.36,broken clouds,2022-07-17 17:58:37
558,Tulsipur,NP,28.131,82.2973,83.68,63,77,4.0,broken clouds,2022-07-17 17:54:54
559,Xichang,CN,27.8964,102.2634,69.87,92,99,1.72,light rain,2022-07-17 17:58:37
560,Gat,IL,31.61,34.7642,80.82,100,0,5.79,clear sky,2022-07-17 17:58:38
561,Mpongwe,ZM,-13.5091,28.155,60.08,43,23,9.84,few clouds,2022-07-17 17:58:38
562,Semaria,IN,24.3073,79.9718,90.16,52,65,3.8,broken clouds,2022-07-17 17:58:39
563,Flin Flon,CA,54.7682,-101.865,76.84,53,20,9.22,few clouds,2022-07-17 17:58:39
564,Fredericton,CA,45.9454,-66.6656,82.83,44,20,9.22,few clouds,2022-07-17 17:58:32
565,Mizdah,LY,31.4451,12.9801,87.12,20,0,16.73,clear sky,2022-07-17 17:58:39
566,Buenavista,PH,8.9769,125.4089,75.25,93,100,4.27,overcast clouds,2022-07-17 17:58:40
567,Petropavlovsk-Kamchatskiy,RU,53.0452,158.6483,52.39,100,100,2.24,mist,2022-07-17 17:58:40
568,Sarh,TD,9.1429,18.3923,78.71,78,0,5.75,clear sky,2022-07-17 17:58:40
569,Tessalit,ML,20.1986,1.0114,92.37,31,65,16.6,light rain,2022-07-17 17:58:41
570,Kamina,CD,-8.7386,24.9906,67.17,38,23,4.85,few clouds,2022-07-17 17:58:41
571,Monterey,US,36.2505,-121.2516,97.18,17,1,2.28,clear sky,2022-07-17 17:58:41
572,Mitsamiouli,KM,-11.3847,43.2844,77.29,69,20,13.8,few clouds,2022-07-17 17:58:42
573,Yumen,CN,40.2833,97.2,76.66,37,98,10.25,overcast clouds,2022-07-17 17:58:42
574,General Roca,AR,-39.0333,-67.5833,52.0,38,98,18.43,overcast clouds,2022-07-17 17:58:42
575,Lisala,CD,2.15,21.5167,72.7,94,78,2.15,light rain,2022-07-17 17:58:43
576,Rawson,AR,-43.3002,-65.1023,51.66,45,70,22.75,broken clouds,2022-07-17 17:58:43
577,Lufilufi,WS,-13.8745,-171.5986,71.38,77,48,23.67,light rain,2022-07-17 17:58:43
578,Walvis Bay,NA,-22.9575,14.5053,68.83,43,13,10.85,few clouds,2022-07-17 17:58:44
579,Lamlash,GB,55.5336,-5.1296,73.36,79,100,6.73,overcast clouds,2022-07-17 17:58:44
580,Tabuk,PH,17.4189,121.4443,74.3,93,64,2.55,broken clouds,2022-07-17 17:58:44
581,Mahibadhoo,MV,3.7833,72.9667,81.99,81,99,16.8,moderate rain,2022-07-17 17:58:45
582,Ahipara,NZ,-35.1667,173.1667,48.13,84,90,5.59,overcast clouds,2022-07-17 17:58:45
583,Rivers,CA,50.0308,-100.2403,83.35,62,0,10.31,clear sky,2022-07-17 17:58:45
584,Cap-Aux-Meules,CA,47.3821,-61.8597,69.85,68,20,13.8,few clouds,2022-07-17 17:53:47
585,Cockburn Town,TC,21.4612,-71.1419,87.76,66,40,20.71,scattered clouds,2022-07-17 17:58:46
586,Husavik,IS,66.0449,-17.3389,46.8,91,99,11.07,overcast clouds,2022-07-17 17:58:46
587,Saint Marys,US,30.7305,-81.5465,92.12,71,0,10.36,haze,2022-07-17 17:58:47
588,Port-Cartier,CA,50.0334,-66.8654,75.42,58,68,6.15,broken clouds,2022-07-17 17:58:47
589,San Jeronimo,PE,-11.9472,-75.2829,59.11,48,65,5.35,broken clouds,2022-07-17 17:58:47
590,Makaha,US,21.4694,-158.2175,78.06,71,65,12.19,broken clouds,2022-07-17 17:58:48
591,Metro,ID,-5.1131,105.3067,75.27,94,80,4.25,broken clouds,2022-07-17 17:58:48
592,Yingcheng,CN,30.95,113.55,78.1,93,20,6.8,few clouds,2022-07-17 17:58:48
593,Marsh Harbour,BS,26.5412,-77.0636,84.04,73,72,17.2,broken clouds,2022-07-17 17:58:49
594,Sinnamary,GF,5.3833,-52.95,82.35,71,78,6.55,broken clouds,2022-07-17 17:58:49
595,Tahoua,NE,14.8888,5.2692,85.98,62,20,9.22,few clouds,2022-07-17 17:58:49
596,Pakxan,LA,18.3778,103.6601,77.52,95,61,2.57,light rain,2022-07-17 17:58:50
597,Codajas,BR,-3.8367,-62.0569,94.33,40,64,5.12,broken clouds,2022-07-17 17:58:50
598,Karpogory,RU,64.0019,44.4451,61.05,75,100,2.01,overcast clouds,2022-07-17 17:58:51
599,Washington,US,47.5001,-120.5015,74.48,37,0,5.84,clear sky,2022-07-17 17:56:37
600,Winslow,US,35.0242,-110.6974,92.79,20,40,2.91,scattered clouds,2022-07-17 17:57:46
601,Leshukonskoye,RU,64.8989,45.7622,63.79,63,100,2.73,overcast clouds,2022-07-17 17:58:51
602,Batemans Bay,AU,-35.7167,150.1833,52.11,65,51,7.87,broken clouds,2022-07-17 17:58:51
603,Bose,IT,45.4612,8.0137,92.16,47,4,6.44,clear sky,2022-07-17 17:58:52
604,Itaituba,BR,-4.2761,-55.9836,95.16,49,40,9.22,scattered clouds,2022-07-17 17:56:30
605,Atambua,ID,-9.1061,124.8925,66.69,83,45,5.53,scattered clouds,2022-07-17 17:58:52
606,Toora-Khem,RU,52.4675,96.11,51.84,97,86,0.65,overcast clouds,2022-07-17 17:58:53
607,Guiyang,CN,26.5833,106.7167,73.89,94,100,4.47,overcast clouds,2022-07-17 17:58:53
608,Beyneu,KZ,45.3167,55.2,98.15,15,0,14.99,clear sky,2022-07-17 17:58:53
609,Saint-Augustin,CA,51.226,-58.6502,66.04,72,100,19.3,overcast clouds,2022-07-17 17:58:54
610,Ribeirao Branco,BR,-24.2208,-48.7656,67.78,87,100,2.42,light rain,2022-07-17 17:58:54
611,Kloulklubed,PW,7.0419,134.2556,75.7,76,100,10.38,overcast clouds,2022-07-17 17:58:54
612,Itacarambi,BR,-15.1022,-44.0919,88.03,20,4,6.87,clear sky,2022-07-17 17:58:55
613,Yafran,LY,32.0633,12.5286,80.62,37,0,15.5,clear sky,2022-07-17 17:58:55
614,Kashi,CN,39.4547,75.9797,81.61,29,0,6.71,clear sky,2022-07-17 17:58:55
615,Envira,BR,-7.3,-70.2167,90.99,51,39,1.57,scattered clouds,2022-07-17 17:58:56
616,Koungheul,SN,13.9833,-14.8,98.13,30,20,11.18,few clouds,2022-07-17 17:58:56
617,Mataro,ES,41.5421,2.4445,97.07,62,0,1.99,clear sky,2022-07-17 17:58:57
618,Humberto De Campos,BR,-2.5983,-43.4611,89.83,49,29,4.94,scattered clouds,2022-07-17 17:58:57
619,Sun Valley,US,39.5963,-119.776,94.68,23,0,4.61,clear sky,2022-07-17 17:58:57
620,Islaz,RO,43.7333,24.75,84.88,13,0,10.0,clear sky,2022-07-17 17:58:58
621,Korem,ET,12.5058,39.5228,63.9,61,99,0.67,overcast clouds,2022-07-17 17:58:58
622,Rocha,UY,-34.4833,-54.3333,53.08,55,0,14.07,clear sky,2022-07-17 17:58:58
623,Jerusalem,IL,31.769,35.2163,73.13,82,0,4.0,clear sky,2022-07-17 17:56:19
624,Encruzilhada Do Sul,BR,-30.5439,-52.5219,51.96,67,16,7.96,few clouds,2022-07-17 17:58:59
625,Dakoro,NE,14.5106,6.765,82.36,62,98,6.08,heavy intensity rain,2022-07-17 17:58:59
626,Kununurra,AU,-15.7667,128.7333,53.58,76,20,0.0,few clouds,2022-07-17 17:59:00
627,Harrison,US,30.4091,-89.0436,91.06,72,4,7.85,clear sky,2022-07-17 17:56:24
628,Okha,RU,53.5739,142.9478,53.19,89,100,14.94,overcast clouds,2022-07-17 17:59:00
629,Evensk,RU,61.95,159.2333,52.83,97,100,2.8,light rain,2022-07-17 17:56:38
630,Smithers,CA,54.7804,-127.1743,61.12,67,75,8.05,broken clouds,2022-07-17 17:54:33
631,Bela,IN,25.9333,81.9833,96.4,43,74,13.06,broken clouds,2022-07-17 17:59:01
632,Mikhaylovka,RU,50.06,43.2379,77.79,55,85,7.18,overcast clouds,2022-07-17 17:59:01
633,Mandurah,AU,-32.55,115.7,54.91,86,73,9.15,broken clouds,2022-07-17 17:59:01
634,Carballo,ES,43.213,-8.691,85.42,78,29,2.86,scattered clouds,2022-07-17 17:59:02
635,Makakilo City,US,21.3469,-158.0858,76.69,74,52,20.87,broken clouds,2022-07-17 17:59:02
636,Poronaysk,RU,49.2167,143.1167,54.32,97,100,14.72,overcast clouds,2022-07-17 17:59:03
637,Najran,SA,17.4924,44.1277,92.05,25,88,10.45,overcast clouds,2022-07-17 17:59:03
638,Mogadishu,SO,2.0371,45.3438,76.55,81,24,18.95,few clouds,2022-07-17 17:59:03
639,Camargo,MX,27.6667,-105.1667,88.9,29,47,5.28,scattered clouds,2022-07-17 17:59:04
640,Dzilam Gonzalez,MX,21.2833,-88.9333,93.47,41,6,6.51,clear sky,2022-07-17 17:59:04
641,Varhaug,NO,58.6147,5.6457,58.86,96,100,15.68,light rain,2022-07-17 17:59:04
642,Kolo,PL,52.2002,18.6387,66.13,44,75,7.49,broken clouds,2022-07-17 17:59:05
643,Quatre Cocos,MU,-20.2078,57.7625,69.91,65,53,22.46,broken clouds,2022-07-17 17:59:05
644,Mahajanga,MG,-15.7167,46.3167,80.62,50,40,8.05,scattered clouds,2022-07-17 17:59:05
645,Benguela,AO,-12.5763,13.4055,68.23,85,70,5.35,broken clouds,2022-07-17 17:59:06
646,Karlstad,SE,59.3793,13.5036,68.56,40,40,6.91,scattered clouds,2022-07-17 17:54:18
647,Bundaberg,AU,-24.85,152.35,53.22,99,100,5.75,overcast clouds,2022-07-17 17:59:06
648,Padang,ID,-0.9492,100.3543,73.45,81,84,3.62,broken clouds,2022-07-17 17:57:33
649,Komsomolskiy,UZ,40.4272,71.7189,84.92,32,0,4.61,clear sky,2022-07-17 17:57:27
650,Kyshtym,RU,55.714,60.5528,62.92,79,87,5.17,overcast clouds,2022-07-17 17:59:07
651,Palmer,US,42.1584,-72.3287,89.49,50,13,1.99,few clouds,2022-07-17 17:59:07
652,Comodoro Rivadavia,AR,-45.8667,-67.5,48.06,46,0,24.16,clear sky,2022-07-17 17:58:24
653,Jaguaribe,BR,-5.8906,-38.6219,93.31,35,76,11.36,broken clouds,2022-07-17 17:59:07
654,Elliot Lake,CA,46.3834,-82.6331,81.07,42,2,6.35,clear sky,2022-07-17 17:59:08
655,Belaya Gora,RU,68.5333,146.4167,47.37,60,12,3.24,few clouds,2022-07-17 17:59:08
656,Cayenne,GF,4.9333,-52.3333,87.84,1,20,8.05,few clouds,2022-07-17 17:56:59
657,Martapura,ID,-3.4167,114.85,75.29,94,75,4.61,broken clouds,2022-07-17 17:59:08
658,Westport,US,41.1415,-73.3579,87.1,59,36,5.99,scattered clouds,2022-07-17 17:54:39
659,Mugur-Aksy,RU,50.35,90.5,52.3,73,95,5.35,overcast clouds,2022-07-17 17:59:09
660,Waipawa,NZ,-41.4122,175.5153,50.94,72,96,22.15,overcast clouds,2022-07-17 17:59:09
661,Diffa,NE,13.3154,12.6113,75.87,79,98,18.3,overcast clouds,2022-07-17 17:59:10
662,Samana,DO,19.2056,-69.3369,88.02,74,20,13.8,few clouds,2022-07-17 17:59:10
663,Bandundu,CD,-3.3167,17.3667,88.18,35,65,2.66,broken clouds,2022-07-17 17:59:10
664,Chara,RU,56.9064,118.2631,59.99,93,98,2.62,light rain,2022-07-17 17:59:11
665,Salta,AR,-24.7859,-65.4117,58.57,45,0,5.75,clear sky,2022-07-17 17:59:11
666,Mbini,GQ,1.574,9.6134,75.81,77,63,8.03,broken clouds,2022-07-17 17:59:11
667,Morgantown,US,39.6295,-79.9559,83.17,79,100,1.01,overcast clouds,2022-07-17 17:57:02
668,Piracanjuba,BR,-17.3028,-49.0167,88.38,19,14,9.62,few clouds,2022-07-17 17:59:12
669,Hualmay,PE,-11.0964,-77.6139,65.82,71,29,9.6,scattered clouds,2022-07-17 17:59:12
670,Uspenskaya,RU,45.7645,41.067,78.24,51,53,7.36,broken clouds,2022-07-17 17:59:13
671,Olenegorsk,RU,68.15,33.3,60.76,78,70,4.76,light rain,2022-07-17 17:59:13
672,Palembang,ID,-2.9167,104.7458,78.89,89,20,4.61,few clouds,2022-07-17 17:59:13
673,Hornepayne,CA,49.2138,-84.7705,85.71,29,9,5.79,clear sky,2022-07-17 17:59:14
674,Mount Gambier,AU,-37.8333,140.7667,46.36,78,93,9.89,light rain,2022-07-17 17:59:14
675,Erenhot,CN,43.6475,111.9767,71.31,26,78,5.79,broken clouds,2022-07-17 17:59:14
676,Baruun-Urt,MN,46.6806,113.2792,59.9,56,2,4.63,clear sky,2022-07-17 17:59:15
677,Chiang Rai,TH,19.9167,99.9167,80.58,94,20,3.44,few clouds,2022-07-17 17:59:15
678,Brokopondo,SR,4.75,-55.1667,85.37,65,23,7.54,few clouds,2022-07-17 17:59:15
679,Aykhal,RU,66.0,111.5,49.08,97,100,2.35,overcast clouds,2022-07-17 17:59:16
680,Kasamwa,TZ,-2.85,32.4333,70.45,45,55,1.97,broken clouds,2022-07-17 17:59:16
681,Linjiang,CN,41.8069,126.9078,63.16,99,72,1.66,broken clouds,2022-07-17 17:59:16
682,Bambanglipuro,ID,-7.95,110.2833,75.47,87,99,6.35,overcast clouds,2022-07-17 17:59:17
683,Mariental,NA,-24.6333,17.9667,61.32,24,4,11.25,clear sky,2022-07-17 17:59:17
684,Brae,GB,60.3964,-1.353,55.33,80,95,12.26,overcast clouds,2022-07-17 17:59:17
685,Juba,SS,4.8517,31.5825,73.04,83,51,5.93,light rain,2022-07-17 17:59:18
686,Lakeville,US,44.6497,-93.2427,88.5,55,40,1.99,scattered clouds,2022-07-17 17:59:18
687,Sharjah,AE,25.3573,55.4033,98.58,49,88,12.66,overcast clouds,2022-07-17 17:56:30
688,Mezofalva,HU,46.9318,18.7718,74.12,20,18,7.43,few clouds,2022-07-17 17:59:19
689,Partizanskoye,RU,55.5006,94.39,57.74,92,97,6.64,overcast clouds,2022-07-17 17:59:19
690,Krasnozerskoye,RU,53.9828,79.2374,54.75,86,6,5.26,clear sky,2022-07-17 17:59:19
691,Bulungu,CD,-4.55,18.6,85.69,34,89,2.13,overcast clouds,2022-07-17 17:59:20
692,Arlit,NE,18.7369,7.3853,95.61,28,45,16.58,scattered clouds,2022-07-17 17:59:20
693,Salekhard,RU,66.53,66.6019,61.84,52,18,1.01,few clouds,2022-07-17 17:59:20
694,Nanakuli,US,21.3906,-158.1547,78.12,72,58,17.54,broken clouds,2022-07-17 17:59:21
695,Prieska,ZA,-29.6641,22.7474,60.49,41,0,8.66,clear sky,2022-07-17 17:59:21
696,Taksimo,RU,56.3444,114.8794,55.62,94,100,1.7,overcast clouds,2022-07-17 17:59:21
697,Abu Kamal,SY,34.4506,40.9171,95.67,14,0,7.72,clear sky,2022-07-17 17:59:22
698,Guadalupe Y Calvo,MX,26.1,-106.9667,73.87,43,42,2.48,scattered clouds,2022-07-17 17:59:22
699,Te Anau,NZ,-45.4167,167.7167,51.51,84,99,12.66,light rain,2022-07-17 17:54:58
700,Berdigestyakh,RU,62.0989,126.6992,67.93,86,76,3.91,broken clouds,2022-07-17 17:59:23
701,Bismarck,US,46.8083,-100.7837,93.65,48,0,8.05,clear sky,2022-07-17 17:56:26
702,Dudinka,RU,69.4058,86.1778,58.62,67,84,3.85,broken clouds,2022-07-17 17:59:23
703,Grand Haven,US,43.0631,-86.2284,81.16,67,100,3.0,overcast clouds,2022-07-17 17:59:23
704,Eureka,US,40.8021,-124.1637,59.25,83,5,8.77,clear sky,2022-07-17 17:54:57
705,Cabra,ES,37.4725,-4.4421,98.65,19,2,3.0,clear sky,2022-07-17 17:59:24
706,Port Macquarie,AU,-31.4333,152.9167,50.9,79,36,6.8,scattered clouds,2022-07-17 17:54:55
707,Takoradi,GH,4.8845,-1.7554,75.78,79,60,11.18,broken clouds,2022-07-17 17:59:24
708,Sundsvall,SE,62.3913,17.3063,59.97,49,100,10.36,light rain,2022-07-17 17:59:25
709,Joensuu,FI,62.6012,29.7632,59.49,77,92,5.75,overcast clouds,2022-07-17 17:59:25
710,Lincoln,US,40.8,-96.667,86.14,69,24,5.99,few clouds,2022-07-17 17:54:58
711,Jadu,LY,31.953,12.0261,82.08,31,0,15.41,clear sky,2022-07-17 17:59:26
712,Tigil,RU,57.8,158.6667,54.59,84,9,11.45,clear sky,2022-07-17 17:59:26
713,Ostrovnoy,RU,68.0531,39.5131,61.07,67,38,11.32,scattered clouds,2022-07-17 17:59:26
714,Changde,CN,29.0464,111.6783,78.46,94,94,2.13,overcast clouds,2022-07-17 17:58:58
715,Sao Miguel Do Araguaia,BR,-13.275,-50.1628,95.36,16,25,6.62,scattered clouds,2022-07-17 17:58:18
716,Marsabit,KE,2.3284,37.9899,70.0,44,72,23.11,broken clouds,2022-07-17 17:59:27
717,Mayfield,US,36.7417,-88.6367,78.91,95,100,0.0,light rain,2022-07-17 17:59:27
718,Mincivan,AZ,39.0294,46.7185,83.82,34,0,1.23,clear sky,2022-07-17 17:59:28
719,Wonthaggi,AU,-38.6044,145.5913,44.82,73,88,22.15,light rain,2022-07-17 17:59:28
720,Omsukchan,RU,62.5333,155.8,51.96,94,100,5.64,light rain,2022-07-17 17:57:11
721,Ostersund,SE,63.1792,14.6357,54.05,87,75,6.91,light intensity drizzle,2022-07-17 17:59:28
722,Vuktyl,RU,63.8567,57.3094,61.72,91,84,1.74,broken clouds,2022-07-17 17:59:29
723,Fortuna Foothills,US,32.6578,-114.4119,104.22,30,70,8.99,broken clouds,2022-07-17 17:59:29
